,location,country_code,latitude,longitude,confirmed,dead,recovered,velocity_confirmed,velocity_dead,velocity_recovered,updated
0,Deventer,nl,52.2660751,6.1552165,0,0.0,,0,0,0,2020-12-13 18:03:44.697940+00:00
1,'s-Gravenhage,nl,52.0704978,4.3006999,0,0.0,,0,0,0,2020-12-13 18:03:44.697940+00:00
2,Pilõezinhos,br,-6.843131,-35.53057750000001,87,0.0,,5,0,0,2020-06-13 00:20:20.628942+00:00
3,Pavussu,br,-7.964324700000001,-43.2243453,2,1.0,,0,0,0,2020-06-13 00:20:19.650852+00:00
4,"Dunn County, North Dakota",us,47.2121625,-102.72602,343,7.0,,2,1,0,2020-12-17 17:45:41.346197+00:00
5,Foz do Jordão,br,-25.6934949,-52.0851258,19,0.0,,0,0,0,2020-06-13 00:19:58.969475+00:00
6,Lagoa Seca,br,-7.1549934,-35.8537249,196,3.0,,3,0,0,2020-06-13 00:20:08.643082+00:00
7,"Todd County, Kentucky",us,36.8338638,-87.14228949999999,567,14.0,,5,0,0,2020-12-17 17:45:41.346197+00:00
8,Uitgeest,nl,52.5312254,4.7120459,0,0.0,,0,0,0,2020-12-13 18:03:44.697940+00:00
9,Catende,br,-8.6679698,-35.7218229,195,12.0,,6,0,0,2020-06-13 00:19:51.029872+00:00
10,Gilbués,br,-9.8289362,-45.3382228,6,0.0,,0,0,0,2020-06-13 00:19:59.580540+00:00
11,Itacajá,br,-8.3933415,-47.7730378,0,0.0,,0,0,0,2020-06-13 00:20:03.678386+00:00
12,Princesa Isabel,br,-7.7350218,-37.9946455,19,0.0,,1,0,0,2020-06-13 00:20:24.182273+00:00
13,Taiyuan,cn,37.87059,112.548879,21,0.0,21.0,0,0,0,2020-12-18 17:54:48.508171+00:00
14,Suhl,de,50.6076846,10.6881255,456,11.0,,0,0,0,2020-12-17 00:00:00+00:00
15,Itapiratins,br,-8.3802211,-48.1076175,28,0.0,,0,0,0,2020-06-13 00:20:04.577950+00:00
16,Southeastern Province,cn,-2.2179704,115.66283,10,0.0,10.0,0,0,0,2020-12-18 17:54:48.508171+00:00
17,Abadia de Goiás,br,-16.763784,-49.4377043,14,0.0,,0,0,0,2020-06-13 00:19:39.999296+00:00
18,Itatiaia,br,-22.4912365,-44.5721272,12,0.0,,0,0,0,2020-06-13 00:20:04.919003+00:00
19,"Coamo County, Puerto Rico",us,18.0799616,-66.35794729999999,357,0.0,0.0,5,0,0,2020-12-17 17:48:16.112082+00:00
20,Santa Luzia do Pará,br,-1.5220326,-46.901112,95,4.0,,0,0,0,2020-06-13 00:20:27.966916+00:00
21,"Madison County, Indiana",us,40.1469349,-85.684578,7646,165.0,,150,1,0,2020-12-17 17:45:41.346197+00:00
22,"Sierra County, California",us,39.5532845,-120.2512728,32,0.0,,0,0,0,2020-12-18 17:45:39.083225+00:00
23,Aporá,br,-11.658109,-38.0715385,18,1.0,,2,0,0,2020-06-13 00:19:42.313110+00:00
24,Guapimirim,br,-22.535199,-42.9899491,457,28.0,,0,0,0,2020-06-13 00:20:00.387784+00:00
25,Zamfara,ng,12.1221805,6.2235819,79,5.0,73.0,0,0,0,2020-12-18 17:48:46.153412+00:00
26,Capim Grosso,br,-11.3801768,-40.0068953,32,3.0,,3,0,0,2020-06-13 00:19:49.805095+00:00
27,Tenente Ananias,br,-6.4574435,-38.1807707,13,2.0,,0,0,0,2020-06-13 00:20:36.253015+00:00
28,"Russell County, Virginia",us,36.9904385,-82.08429009999999,1242,13.0,0.0,21,1,0,2020-12-17 17:48:16.112082+00:00
29,"Ferry County, Washington",us,48.4718375,-118.4974069,149,1.0,0.0,0,0,0,2020-12-17 17:48:16.112082+00:00
30,Serra do Ramalho,br,-13.5413338,-43.5774778,3,0.0,,0,0,0,2020-06-13 00:20:30.440253+00:00
31,Juruá,br,-3.5811865,-66.4271499,72,0.0,,0,0,0,2020-06-13 00:20:08.138112+00:00
32,"Trinity County, Texas",us,31.0687648,-95.1432068,314,9.0,0.0,13,0,0,2020-12-17 17:48:16.112082+00:00
33,Itariri,br,-24.2895753,-47.174264,62,3.0,,0,0,0,2020-06-13 00:20:04.893570+00:00
34,Itaguaçu,br,-12.5429456,-55.72153669999999,18,0.0,,0,0,0,2020-06-13 00:20:03.847579+00:00
35,Brejo de Areia,br,-4.3349476,-45.5826417,19,0.0,,0,0,0,2020-06-13 00:19:46.899481+00:00
36,Nova Alvorada do Sul,br,-21.452822,-54.3784034,1,0.0,,0,0,0,2020-06-13 00:20:15.783983+00:00
37,"Sanders County, Montana",us,47.61094629999999,-115.1316944,371,3.0,,11,0,0,2020-12-17 17:45:41.346197+00:00
38,Angélica,br,-22.0685311,-53.8671868,3,0.0,,2,0,0,2020-06-13 00:19:41.956942+00:00
39,Casserengue,br,-6.780635299999999,-35.8177357,46,0.0,,5,0,0,2020-06-13 00:19:50.852200+00:00
40,Béchar,dz,31.6182492,-2.2143231,348,348.0,3.0,0,0,0,2020-12-18 17:48:45.666502+00:00
41,Galicia,es,42.5750554,-8.1338558,9056,607.0,9204.0,0,0,0,2020-05-22 14:18:25.542712+00:00
42,Icapuí,br,-4.7158559,-37.3547456,145,5.0,,0,0,0,2020-06-13 00:20:01.748567+00:00
43,Romelândia,br,-26.6785154,-53.3191758,6,0.0,,0,0,0,2020-06-13 00:20:26.511717+00:00
44,Penápolis,br,-21.42162,-50.08259049999999,22,4.0,,0,0,0,2020-06-13 00:20:20.257606+00:00
45,Cordeirópolis,br,-22.4818598,-47.4593897,69,2.0,,0,0,0,2020-06-13 00:19:53.398162+00:00
46,Ponta Porã,br,-22.523123,-55.7242526,47,1.0,,-2,1,0,2020-06-13 00:20:21.943752+00:00
47,Goianorte,br,-8.7747722,-48.9354688,4,0.0,,0,0,0,2020-06-13 00:19:59.715845+00:00
48,"Grainger County, Tennessee",us,36.3059333,-83.54965659999999,1476,21.0,0.0,27,0,0,2020-12-17 17:48:16.112082+00:00
49,"Bristol, City of",gb,51.454513,-2.58791,681,,,0,0,0,2020-05-14 15:01:09+00:00
50,Bromley,gb,51.406025,0.013156,1213,,,0,0,0,2020-05-14 15:01:09+00:00
51,"Minnehaha County, South Dakota",us,43.6631787,-96.83509989999999,23618,237.0,0.0,163,0,0,2020-12-17 17:48:16.112082+00:00
52,"Pike County, Ohio",us,39.0713471,-83.03613759999999,1215,5.0,,18,0,0,2020-12-17 17:45:41.346197+00:00
53,Gameleira de Goiás,br,-16.4855094,-48.6454678,4,0.0,,0,0,0,2020-06-13 00:19:59.326333+00:00
54,Santa Helena,br,-2.2324841,-45.3016641,2,0.0,,0,0,0,2020-06-13 00:20:27.782879+00:00
55,Amorinópolis,br,-16.6278743,-51.0914103,2,0.0,,0,0,0,2020-06-13 00:19:41.566349+00:00
56,Santa Brígida,br,-9.7362638,-38.1283783,4,0.0,,0,0,0,2020-06-13 00:20:27.286645+00:00
57,Santana dos Garrotes,br,-7.3851571,-37.9869429,2,0.0,,0,0,0,2020-06-13 00:20:28.820995+00:00
58,Caiuá,br,-21.8322944,-51.9898256,3,0.0,,0,0,0,2020-06-13 00:19:48.261861+00:00
59,Amaralina,br,-13.9240574,-49.2966837,4,0.0,,0,0,0,2020-06-13 00:19:41.482253+00:00
60,Santa Rosa de Viterbo,br,-21.4909206,-47.37045,4,0.0,,3,0,0,2020-06-13 00:20:28.382335+00:00
61,Ulanchab,cn,40.994785,113.132585,3,0.0,3.0,0,0,0,2020-12-18 17:54:48.508171+00:00
62,Casinhas,br,-7.741251900000001,-35.7209567,7,2.0,,0,0,0,2020-06-13 00:19:50.841516+00:00
63,Campo Limpo de Goiás,br,-16.2965919,-49.0934616,2,0.0,,0,0,0,2020-06-13 00:19:49.072218+00:00
64,Apuarema,br,-13.8554594,-39.7443601,1,0.0,,0,0,0,2020-06-13 00:19:42.334096+00:00
65,Corguinho,br,-19.827792,-54.8314399,1,0.0,,0,0,0,2020-06-13 00:19:53.473355+00:00
66,Tocantinópolis,br,-6.3248673,-47.4228183,187,3.0,,0,0,0,2020-06-13 00:20:36.801290+00:00
67,Palmeira do Piauí,br,-8.7258357,-44.2371758,1,0.0,,0,0,0,2020-06-13 00:20:18.146693+00:00
68,"New Haven County, Connecticut",us,41.3266911,-72.8042797,41146,1421.0,,607,12,0,2020-12-17 17:45:41.346197+00:00
69,Diamante,br,-7.426503400000001,-38.264777,2,0.0,,0,0,0,2020-06-13 00:19:56.202369+00:00
70,Itacaré,br,-14.2801421,-38.9946495,46,2.0,,0,0,0,2020-06-13 00:20:03.700870+00:00
71,Ponta de Pedras,br,-7.633229800000001,-34.8134283,195,6.0,,0,0,0,2020-06-13 00:20:21.956867+00:00
72,Regeneração,br,-6.344344,-42.4724578,5,0.0,,0,0,0,2020-06-13 00:20:25.259033+00:00
73,Cruzaltense,br,-27.668275,-52.6495906,7,0.0,,0,0,0,2020-06-13 00:19:54.603439+00:00
74,Piranguinho,br,-22.4029088,-45.5339578,11,0.0,,0,0,0,2020-06-13 00:20:21.149697+00:00
75,Carvalhópolis,br,-21.7783171,-45.84170959999999,1,0.0,,0,0,0,2020-06-13 00:19:50.731428+00:00
76,Serrana,br,-21.2076994,-47.60484140000001,45,7.0,,1,1,0,2020-06-13 00:20:30.486589+00:00
77,Redenção,br,-8.0257338,-50.0322512,315,2.0,,0,0,0,2020-06-13 00:20:25.248983+00:00
78,São Romão,br,-16.3647886,-45.0746603,5,1.0,,0,0,0,2020-06-13 00:20:35.012564+00:00
79,Santa Maria da Serra,br,-22.5696545,-48.1567345,25,0.0,,2,0,0,2020-06-13 00:20:28.081731+00:00
80,Damolândia,br,-16.2548219,-49.36354600000001,1,0.0,,0,0,0,2020-06-13 00:19:55.636631+00:00
81,Várzea Grande,br,-15.646248,-56.1327131,1,0.0,,0,0,0,2020-06-13 00:20:39.945086+00:00
82,Americano do Brasil,br,-16.2518975,-49.9835817,0,0.0,,0,0,0,2020-05-23 00:18:50.247418+00:00
83,Serrano do Maranhão,br,-1.8526475,-45.1211331,16,0.0,,0,0,0,2020-06-13 00:20:30.537659+00:00
84,Arantina,br,-21.9106617,-44.2559403,3,0.0,,0,0,0,2020-06-13 00:19:42.662609+00:00
85,Joaquim Pires,br,-3.5412868,-42.1177396,8,0.0,,0,0,0,2020-06-13 00:20:07.242739+00:00
86,Belo Oriente,br,-19.2580383,-42.4331624,23,1.0,,0,0,0,2020-06-13 00:19:45.133997+00:00
87,Unaí,br,-16.3596235,-46.9024959,235,0.0,,0,0,0,2020-06-13 00:20:38.380732+00:00
88,"Onslow County, North Carolina",us,34.6540094,-77.4701972,7383,54.0,,64,0,0,2020-12-17 17:45:41.346197+00:00
89,"Emmet County, Iowa",us,43.34943,-94.6863782,900,23.0,,6,0,0,2020-12-17 17:45:41.346197+00:00
90,Potim,br,-22.8401139,-45.2554893,5,0.0,,0,0,0,2020-06-13 00:20:23.165337+00:00
91,Ribeirão Branco,br,-24.2210685,-48.7640116,20,0.0,,0,0,0,2020-06-13 00:20:25.689388+00:00
92,Pontal,br,-21.0273,-48.0353,42,4.0,,8,0,0,2020-06-13 00:20:22.005438+00:00
93,Corumbaíba,br,-18.1395882,-48.5605834,3,1.0,,0,0,0,2020-06-13 00:19:53.883416+00:00
94,Carmo,br,-21.9314728,-42.6076037,29,2.0,,0,0,0,2020-06-13 00:19:50.540851+00:00
95,Cruz Alta,br,-28.6454883,-53.605355,44,1.0,,1,0,0,2020-06-13 00:19:54.535514+00:00
96,Marcelino Ramos,br,-27.4653827,-51.9080083,9,0.0,,0,0,0,2020-06-13 00:20:11.749488+00:00
97,Buckinghamshire,gb,51.8072204,-0.8127664,906,,,0,0,0,2020-05-14 15:01:09+00:00
98,Alto Paraíso,br,-14.1366085,-47.51886289999999,27,2.0,,0,0,0,2020-06-13 00:19:41.207215+00:00
99,Cheshire West and Chester,gb,53.2302974,-2.7151117,957,,,0,0,0,2020-05-14 15:01:09+00:00
100,Hartlepool,gb,54.691745,-1.212926,281,,,0,0,0,2020-05-14 15:01:09+00:00
101,Havering,gb,51.577924,0.2120829,681,,,0,0,0,2020-05-14 15:01:09+00:00
102,Chiapetta,br,-27.9235009,-53.94239400000001,7,0.0,,0,0,0,2020-06-13 00:19:51.771944+00:00
103,North Lincolnshire,gb,53.60555919999999,-0.5596582,453,,,0,0,0,2020-05-14 15:01:09+00:00
104,Ilhabela,br,-23.8158392,-45.3664809,60,2.0,,1,0,0,2020-06-13 00:20:02.297906+00:00
105,Manicoré,br,-6.511245499999999,-60.9540073,93,2.0,,0,0,0,2020-06-13 00:20:11.229034+00:00
106,Morada Nova,br,-5.0977503,-38.37050139999999,723,8.0,,2,1,0,2020-06-13 00:20:14.395337+00:00
107,Paulicéia,br,-21.3157294,-51.8325787,2,0.0,,0,0,0,2020-06-13 00:20:19.499687+00:00
108,"Campbell County, Virginia",us,37.221014,-79.1096901,1637,17.0,0.0,34,0,0,2020-12-17 17:48:16.112082+00:00
109,Piraúba,br,-21.2714221,-43.0389191,4,0.0,,0,0,0,2020-06-13 00:20:21.377631+00:00
110,Riqueza,br,-27.0701054,-53.3258041,6,0.0,,0,0,0,2020-06-13 00:20:26.409041+00:00
111,"Lake County, Colorado",us,39.1941167,-106.2992912,383,0.0,,5,0,0,2020-12-17 17:45:41.346197+00:00
112,Santa Maria de Itabira,br,-19.4517591,-43.1141927,8,0.0,,0,0,0,2020-06-13 00:20:28.113346+00:00
113,Ubarana,br,-21.1659804,-49.7172901,1,0.0,,0,0,0,2020-06-13 00:20:38.037233+00:00
114,"Kalawao County, Hawaii",us,21.2273942,-156.9749731,1,0.0,,0,0,0,2020-12-17 17:45:41.346197+00:00
115,Itaquara,br,-13.4537425,-39.8784831,1,0.0,,0,0,0,2020-06-13 00:20:04.789646+00:00
116,Presidente Epitácio,br,-21.7668273,-52.1096821,15,2.0,,0,0,0,2020-06-13 00:20:23.845804+00:00
117,Shijingshan district,cn,39.906611,116.222981,15,0.0,9.0,0,0,0,2020-12-18 17:54:48.508171+00:00
118,Cumaru do Norte,br,-7.8114157,-50.767642,59,2.0,,0,0,0,2020-06-13 00:19:54.911732+00:00
119,Parnaguá,br,-10.2243813,-44.637345,1,0.0,,0,0,0,2020-06-13 00:20:18.998576+00:00
120,Santa Ernestina,br,-21.4597249,-48.3903258,3,0.0,,0,0,0,2020-06-13 00:20:27.623823+00:00
121,"Charles City County, Virginia",us,37.4018216,-77.1485163,162,7.0,,0,0,0,2020-12-18 17:45:39.083225+00:00
122,Espírito Santo,br,-19.1834229,-40.3088626,9,0.0,,0,0,0,2020-06-13 00:19:57.582289+00:00
123,Benue,ng,7.3369024,8.7403687,493,11.0,460.0,0,0,0,2020-12-18 17:48:46.047710+00:00
124,Japi,br,-6.4667273,-35.9455463,4,0.0,,0,0,0,2020-06-13 00:20:06.384072+00:00
125,Fernandes Pinheiro,br,-25.4112295,-50.5460865,1,1.0,,0,0,0,2020-06-13 00:19:58.086189+00:00
126,"Ware County, Georgia",us,31.134411,-82.4752757,2899,81.0,,41,0,0,2020-12-17 17:45:41.346197+00:00
127,Bayanur.,cn,40.743213,107.387657,8,1.0,7.0,0,0,0,2020-12-18 17:54:48.508171+00:00
128,Pedro Laurentino,br,-8.0665509,-42.2858241,4,0.0,,0,0,0,2020-06-13 00:20:19.946490+00:00
129,"Bradford County, Florida",us,29.97238179999999,-82.1713632,1674,22.0,,26,0,0,2020-12-17 17:45:41.346197+00:00
130,Manaus,br,-3.1190275,-60.0217314,22504,1560.0,,0,0,0,2020-06-13 00:20:11.077894+00:00
131,Winterswijk,nl,51.977038,6.7454136,0,0.0,,0,0,0,2020-12-13 18:03:44.697940+00:00
132,"Cocke County, Tennessee",us,35.9359517,-83.12200740000002,2276,34.0,0.0,48,1,0,2020-12-17 17:48:16.112082+00:00
133,Ponte Nova,br,-20.4171273,-42.9027576,19,0.0,,0,0,0,2020-06-13 00:20:22.076217+00:00
134,"Unassigned County, Indiana",us,40.2671941,-86.1349019,193,193.0,0.0,0,0,0,2020-07-06 05:31:48.055316+00:00
135,Mato Leitão,br,-29.5290271,-52.12823299999999,9,0.0,,0,0,0,2020-06-13 00:20:12.659687+00:00
136,Maribondo,br,-9.5773909,-36.3058392,46,1.0,,2,0,0,2020-06-13 00:20:12.039756+00:00
137,Chenzhou,cn,25.770509,113.014717,39,0.0,39.0,0,0,0,2020-12-18 17:54:48.508171+00:00
138,Serra Redonda,br,-7.185634499999999,-35.6803639,77,0.0,,4,0,0,2020-06-13 00:20:30.348300+00:00
139,"Cumberland County, Maine",us,43.81329789999999,-70.3870587,5433,82.0,,152,1,0,2020-12-17 17:45:41.346197+00:00
140,Ribeira,br,-24.6048562,-49.0817124,1,0.0,,0,0,0,2020-06-13 00:20:25.658814+00:00
141,"Middlesex County, Connecticut",us,41.46985050000001,-72.4731529,5263,226.0,,110,2,0,2020-12-17 17:45:41.346197+00:00
142,"Wibaux County, Montana",us,46.7836649,-104.3183897,108,4.0,,1,0,0,2020-12-17 17:45:41.346197+00:00
143,Salinas,br,-16.1679216,-42.29393899999999,1,1.0,,0,1,0,2020-06-13 00:20:26.982057+00:00
144,"Door County, Wisconsin",us,44.8341302,-87.3770488,1986,14.0,0.0,27,1,0,2020-12-17 17:48:16.112082+00:00
145,Salvaterra,br,-0.7595761999999999,-48.5232815,206,9.0,,0,0,0,2020-06-13 00:20:27.169917+00:00
146,"Carter County, Montana",us,45.4522431,-104.3707837,134,4.0,,2,0,0,2020-12-17 17:45:41.346197+00:00
147,"Anasco County, Puerto Rico",us,18.2854476,-67.1402935,391,0.0,0.0,11,0,0,2020-12-17 17:48:16.112082+00:00
148,"McLean County, Illinois",us,40.5478429,-88.86469799999999,10470,88.0,,109,14,0,2020-12-17 17:45:41.346197+00:00
149,"Day County, South Dakota",us,45.4167482,-97.70237159999999,494,15.0,0.0,2,0,0,2020-12-17 17:48:16.112082+00:00
150,Serra Talhada,br,-7.982190699999999,-38.2893787,221,5.0,,20,0,0,2020-06-13 00:20:30.363600+00:00
151,"Naranjito County, Puerto Rico",us,18.3007861,-66.2448904,748,0.0,0.0,7,0,0,2020-12-17 17:48:16.112082+00:00
152,Médéa,dz,36.2853847,2.7680247,826,826.0,19.0,0,0,0,2020-12-18 17:48:45.313941+00:00
153,Cambuí,br,-22.6118831,-46.05770709999999,41,0.0,,0,0,0,2020-06-13 00:19:48.677493+00:00
154,"Marion County, Tennessee",us,35.0928512,-85.64348700000001,1590,22.0,0.0,31,0,0,2020-12-17 17:48:16.112082+00:00
155,"LaPorte County, Indiana",us,41.4775131,-86.8220341,6448,120.0,,121,1,0,2020-12-17 17:45:41.346197+00:00
156,Porto do Mangue,br,-5.0682266,-36.77994140000001,22,1.0,,0,0,0,2020-06-13 00:20:23.077433+00:00
157,Condeúba,br,-14.9006135,-41.968944,10,0.0,,-1,0,0,2020-06-13 00:19:53.022165+00:00
158,Padre Marcos,br,-7.351416800000001,-40.90003160000001,2,0.0,,0,0,0,2020-06-13 00:20:17.917474+00:00
159,Capela,br,-10.5102117,-37.0530033,51,1.0,,1,0,0,2020-06-13 00:19:49.765363+00:00
160,Bouira,dz,36.37763,3.8962348,1394,1394.0,13.0,0,0,0,2020-12-18 17:48:44.988888+00:00
161,Ervália,br,-20.8375238,-42.6563191,7,0.0,,0,0,0,2020-06-13 00:19:57.404707+00:00
162,Gameleira,br,-8.5853481,-35.3871125,84,9.0,,4,1,0,2020-06-13 00:19:59.336329+00:00
163,Guaraqueçaba,br,-25.2445091,-48.3190276,1,1.0,,0,0,0,2020-06-13 00:20:00.649088+00:00
164,Jucati,br,-8.7068084,-36.4892171,14,0.0,,2,0,0,2020-06-13 00:20:07.754118+00:00
165,"Atoka County, Oklahoma",us,34.4509901,-95.9832577,1095,2.0,,15,0,0,2020-12-17 17:45:41.346197+00:00
166,Gonzaga,br,-23.9702282,-46.33668309999999,1,0.0,,0,0,0,2020-06-13 00:19:59.845027+00:00
167,Porto Franco,br,-6.340382099999999,-47.3961372,111,3.0,,16,0,0,2020-06-13 00:20:22.837322+00:00
168,Jaú do Tocantins,br,-12.6513395,-48.5894239,0,0.0,,0,0,0,2020-06-11 22:48:41.278554+00:00
169,"Phillips County, Arkansas",us,34.4611206,-90.86751339999999,1113,18.0,,24,0,0,2020-12-17 17:45:41.346197+00:00
170,Castanhal,br,-1.2962162,-47.9190546,1185,128.0,,0,0,0,2020-06-13 00:19:50.863061+00:00
171,Catuji,br,-17.3022348,-41.51675040000001,8,0.0,,0,0,0,2020-06-13 00:19:51.081105+00:00
172,"Lawrence County, Tennessee",us,35.2761735,-87.460397,3778,51.0,0.0,57,3,0,2020-12-17 17:48:16.112082+00:00
173,"Garvin County, Oklahoma",us,34.7289063,-97.35165579999999,1928,18.0,,32,0,0,2020-12-17 17:45:41.346197+00:00
174,"Woodward County, Oklahoma",us,36.413792,-99.3673084,2216,8.0,,13,0,0,2020-12-17 17:45:41.346197+00:00
175,São Gabriel da Cachoeira,br,-0.1155659,-67.0883053,2365,28.0,,0,0,0,2020-06-13 00:20:32.507239+00:00
176,Hegang,cn,47.349916,130.297964,5,0.0,5.0,0,0,0,2020-12-18 17:54:48.508171+00:00
177,Aachen,de,50.7753455,6.083886800000001,1,0.0,,0,0,0,2020-12-03 00:00:00+00:00
178,"Imperial County, California",us,33.0113694,-115.4733554,20003,393.0,,247,6,0,2020-12-17 17:45:41.346197+00:00
179,"Castro County, Texas",us,34.4985047,-102.3463875,732,12.0,0.0,19,0,0,2020-12-17 17:48:16.112082+00:00
180,"Rock Island County, Illinois",us,41.39982089999999,-90.563609,10179,211.0,,94,30,0,2020-12-17 17:45:41.346197+00:00
181,Lagoa da Confusão,br,-10.7871029,-49.6191056,24,0.0,,0,0,0,2020-06-13 00:20:08.709339+00:00
182,Mallet,br,-25.8728975,-50.8664451,2,0.0,,0,0,0,2020-06-13 00:20:10.990228+00:00
183,"Pepin County, Wisconsin",us,44.6451183,-92.02731899999999,613,4.0,0.0,6,0,0,2020-12-17 17:48:16.112082+00:00
184,"Grant County, Washington",us,47.1981147,-119.3732456,5240,40.0,0.0,0,0,0,2020-12-17 17:48:16.112082+00:00
185,Formosa do Rio Preto,br,-11.0409838,-45.1899521,7,0.0,,0,0,0,2020-06-13 00:19:58.530096+00:00
186,"Plaquemines County, Louisiana",us,29.3240045,-89.4742177,1504,20.0,,22,0,0,2020-12-17 17:45:41.346197+00:00
187,Careiro,br,-3.8194468,-60.3612359,816,13.0,,0,0,0,2020-06-13 00:19:50.321517+00:00
188,Ernestina,br,-28.4992647,-52.5694862,4,0.0,,-2,0,0,2020-06-13 00:19:57.373634+00:00
189,"Phillips County, Montana",us,48.4519289,-107.8777779,383,10.0,,7,1,0,2020-12-17 17:45:41.346197+00:00
190,"Clinton County, New York",us,44.7904203,-73.6005824,738,5.0,,7,0,0,2020-12-17 17:45:41.346197+00:00
191,Vogelsbergkreis,de,50.59862769999999,9.3079,1233,35.0,,0,0,0,2020-12-17 00:00:00+00:00
192,Goiás,br,-15.8270369,-49.8362237,0,0.0,,0,0,0,2020-06-13 00:19:59.812638+00:00
193,Juarina,br,-8.1199104,-49.0647793,1,0.0,,0,0,0,2020-06-13 00:20:07.653471+00:00
194,"Unassigned County, Connecticut",us,41.6032207,-73.087749,647,0.0,0.0,-66,0,0,2020-12-17 17:48:16.112082+00:00
195,"Florida County, Puerto Rico",us,18.3630091,-66.5581092,275,0.0,0.0,25,0,0,2020-12-17 17:48:16.112082+00:00
196,Candiota,br,-31.5450621,-53.7197806,1,0.0,,0,0,0,2020-06-13 00:19:49.453226+00:00
197,"Vega Alta County, Puerto Rico",us,18.4315524,-66.3365098,915,0.0,0.0,9,0,0,2020-12-17 17:48:16.112082+00:00
198,Senhora dos Remédios,br,-21.0291145,-43.5819523,1,0.0,,0,0,0,2020-06-13 00:20:30.103068+00:00
199,"Portage County, Ohio",us,41.1887572,-81.2518833,6138,89.0,,105,0,0,2020-12-17 17:45:41.346197+00:00
200,El Bayadh,dz,33.65813869999999,1.0203224,232,232.0,6.0,0,0,0,2020-12-18 17:48:45.432532+00:00
201,Ain Temouchent,dz,35.3072501,-1.1424514,714,714.0,5.0,0,0,0,2020-12-18 17:48:45.593375+00:00
202,Gard,fr,43.9446996,4.1513764,1818,305.0,1307.0,0,0,0,2020-12-18 17:53:11.969624+00:00
203,Barra de Santa Rosa,br,-6.7217118,-36.0599473,12,0.0,,0,0,0,2020-06-13 00:19:44.311664+00:00
204,Xiushan County,cn,28.447997,109.007094,1,0.0,1.0,0,0,0,2020-12-18 17:54:48.508171+00:00
205,Bathaʼ,sa,24.6194976,46.72464859999999,41,0.0,11.0,0,0,0,2020-07-01 06:48:19.780801+00:00
206,"Tolland County, Connecticut",us,41.8418987,-72.37846789999999,4124,98.0,,74,0,0,2020-12-17 17:45:41.346197+00:00
207,"Paulding County, Georgia",us,33.9142037,-84.8984775,6824,98.0,,153,7,0,2020-12-17 17:45:41.346197+00:00
208,"Delaware County, Indiana",us,40.2583533,-85.39627689999999,6857,125.0,,113,1,0,2020-12-17 17:45:41.346197+00:00
209,Itaporã do Tocantins,br,-8.5721287,-48.689911,0,0.0,,0,0,0,2020-06-11 22:48:39.214016+00:00
210,Nova Iguaçu,br,-22.7561319,-43.4607419,2443,265.0,,0,0,0,2020-06-13 00:20:16.251652+00:00
211,Timbó,br,-26.7958795,-49.2638678,36,0.0,,0,0,0,2020-06-13 00:20:36.702293+00:00
212,"Cabarrus County, North Carolina",us,35.4168123,-80.5882803,9201,120.0,,133,0,0,2020-12-17 17:45:41.346197+00:00
213,Woensdrecht,nl,51.4292475,4.3047078,0,0.0,,0,0,0,2020-12-13 18:03:44.697940+00:00
214,São Miguel das Matas,br,-13.0438348,-39.45820459999999,2,0.0,,0,0,0,2020-06-13 00:20:34.562810+00:00
215,Américo de Campos,br,-20.2979261,-49.7337479,8,0.0,,1,0,0,2020-06-13 00:19:41.652000+00:00
216,Nazareno,br,-21.2205455,-44.61067389999999,3,0.0,,0,0,0,2020-06-13 00:20:15.308535+00:00
217,Santa Cruz do Piauí,br,-7.1843346,-41.7677209,2,0.0,,0,0,0,2020-06-13 00:20:27.538734+00:00
218,Santo Hipólito,br,-18.4661452,-44.13404389999999,8,0.0,,0,0,0,2020-06-13 00:20:29.354408+00:00
219,Al ʻUyun,sa,24.5125088,39.5862698,302,0.0,198.0,0,0,0,2020-07-01 06:48:19.772425+00:00
220,"Out of AL County, Alabama",us,32.3182314,-86.902298,44,0.0,0.0,0,0,0,2020-09-15 17:47:25.908897+00:00
221,Capinzal,br,-27.3473259,-51.6056325,4,0.0,,0,0,0,2020-06-13 00:19:49.835728+00:00
222,Taiobeiras,br,-15.8142935,-42.227378,20,0.0,,1,0,0,2020-06-13 00:20:35.659261+00:00
223,Ouricuri,br,-7.8808775,-40.0810267,46,2.0,,1,0,0,2020-06-13 00:20:17.643350+00:00
224,Mirante da Serra,br,-11.0289123,-62.67147749999999,31,1.0,,0,0,0,2020-06-13 00:20:13.493201+00:00
225,Saltinho,br,-22.8446528,-47.675824,14,1.0,,0,0,0,2020-06-13 00:20:27.045779+00:00
226,Pedras de Fogo,br,-7.400925300000001,-35.1117491,551,5.0,,64,0,0,2020-06-13 00:20:19.827083+00:00
227,Santa Mariana,br,-23.1490745,-50.51974569999999,15,1.0,,2,0,0,2020-06-13 00:20:28.190746+00:00
228,"Botetourt County, Virginia",us,37.5774613,-79.7848422,1040,14.0,0.0,18,0,0,2020-12-17 17:48:16.112082+00:00
229,Tarauacá,br,-8.1608977,-70.7652128,427,3.0,,0,0,0,2020-06-13 00:20:36.072268+00:00
230,Corupá,br,-26.4355066,-49.2452364,65,0.0,,0,0,0,2020-06-13 00:19:53.949444+00:00
231,Urucurituba,br,-3.1286852,-58.1551349,235,2.0,,0,0,0,2020-06-13 00:20:38.634642+00:00
232,"Tucker County, West Virginia",us,39.1083806,-79.6502105,252,1.0,0.0,8,1,0,2020-12-17 17:48:16.112082+00:00
233,"Martin County, Minnesota",us,43.6266807,-94.479976,1465,23.0,,18,0,0,2020-12-17 17:45:41.346197+00:00
234,Urânia,br,-20.245927,-50.6459663,37,2.0,,3,0,0,2020-06-13 00:20:38.763756+00:00
235,Montanhas,br,-6.4856202,-35.2844749,16,1.0,,0,0,0,2020-06-13 00:20:13.929530+00:00
236,"Brown County, Minnesota",us,44.2294379,-94.645035,1870,26.0,,21,0,0,2020-12-17 17:45:41.346197+00:00
237,Salto do Lontra,br,-25.7820598,-53.3102927,1,0.0,,0,0,0,2020-06-13 00:20:27.125258+00:00
238,"Furnas County, Nebraska",us,40.12139699999999,-99.99122539999999,338,4.0,,1,0,0,2020-12-17 17:45:41.346197+00:00
239,"Henry County, Illinois",us,41.361088,-90.0746767,3382,43.0,,30,17,0,2020-12-17 17:45:41.346197+00:00
240,Wijdemeren,nl,52.2196884,5.0936663,0,0.0,,0,0,0,2020-12-13 18:03:44.697940+00:00
241,São Sebastião do Uatumã,br,-2.5616153,-57.87328789999999,152,1.0,,0,0,0,2020-06-13 00:20:35.210099+00:00
242,"Sedgwick County, Colorado",us,40.8568843,-102.3463875,118,2.0,,0,0,0,2020-12-18 17:45:39.083225+00:00
243,Oldenburg,de,53.1434501,8.214552099999999,3533,50.0,,0,0,0,2020-12-17 00:00:00+00:00
244,Bastos,br,-21.9221397,-50.7317774,2,0.0,,0,0,0,2020-06-13 00:19:44.790804+00:00
245,Anshun,cn,26.253088,105.947595,4,0.0,4.0,0,0,0,2020-12-18 17:54:48.508171+00:00
246,"Mitchell County, North Carolina",us,36.0277763,-82.1496049,740,7.0,,14,1,0,2020-12-17 17:45:41.346197+00:00
247,"Pulaski County, Indiana",us,40.9957383,-86.8220341,702,28.0,,15,0,0,2020-12-17 17:45:41.346197+00:00
248,"Johnson County, Kentucky",us,37.8048335,-82.8640623,1016,12.0,,9,1,0,2020-12-17 17:45:41.346197+00:00
249,"Campbell County, Kentucky",us,38.8951891,-84.3962535,4037,25.0,,59,1,0,2020-12-17 17:45:41.346197+00:00
250,"West Baton Rouge County, Louisiana",us,30.4751202,-91.3276422,1619,46.0,,17,0,0,2020-12-17 17:45:41.346197+00:00
251,"Trumbull County, Ohio",us,41.3064984,-80.7214417,9275,219.0,,215,21,0,2020-12-17 17:45:41.346197+00:00
252,"Las Piedras County, Puerto Rico",us,18.1855753,-65.87362449999999,580,0.0,0.0,12,0,0,2020-12-17 17:48:16.112082+00:00
253,Illizi,dz,26.5094346,8.4732718,140,140.0,0.0,0,0,0,2020-12-18 17:48:45.461209+00:00
254,Chlef,dz,36.147424,1.3083685,248,248.0,3.0,0,0,0,2020-12-18 17:48:45.673618+00:00
255,FCT,ng,8.8940691,7.1860402,6385,82.0,5934.0,0,0,0,2020-12-18 17:48:45.894055+00:00
256,Jura,fr,46.76247499999999,5.6729159,1261,196.0,833.0,0,0,0,2020-12-18 17:53:11.974363+00:00
257,Terra Roxa,br,-24.161658,-54.0980839,26,0.0,,3,0,0,2020-06-13 00:20:36.474504+00:00
258,Sächsische Schweiz-Osterzgebirge,de,50.89819490000001,13.8716319,7779,220.0,,0,0,0,2020-12-17 00:00:00+00:00
259,Dionísio Cerqueira,br,-26.2649782,-53.636269,4,2.0,,2,0,0,2020-06-13 00:19:56.265282+00:00
260,Nazaré do Piauí,br,-6.971285099999999,-42.673967,1,0.0,,0,0,0,2020-06-13 00:20:15.361728+00:00
261,Barnsley,gb,53.55263,-1.479726,807,,,0,0,0,2020-05-14 15:01:09+00:00
262,Bela Vista do Paraíso,br,-22.9959817,-51.2422395,6,2.0,,1,0,0,2020-06-13 00:19:44.974767+00:00
263,Qitaihe,cn,45.771726,131.0031381,17,0.0,17.0,0,0,0,2020-12-18 17:54:48.508171+00:00
264,"Barber County, Kansas",us,37.2299788,-98.7481167,249,2.0,,0,0,0,2020-12-18 17:45:39.083225+00:00
265,"McMullen County, Texas",us,28.3102323,-98.5721016,48,1.0,0.0,1,0,0,2020-12-17 17:48:16.112082+00:00
266,Novo Horizonte do Sul,br,-22.6697886,-53.86064829999999,1,0.0,,0,0,0,2020-06-13 00:20:16.950078+00:00
267,Bonito,br,-21.1265516,-56.4841032,67,10.0,,4,0,0,2020-06-13 00:19:46.362368+00:00
268,Espigão D'Oeste,br,-11.5323149,-61.0169967,37,2.0,,0,0,0,2020-06-13 00:19:57.517077+00:00
269,Tabaporã,br,-11.3085337,-56.8215893,1,0.0,,0,0,0,2020-06-13 00:20:35.481618+00:00
270,Porto dos Gaúchos,br,-11.5356305,-57.4065172,5,0.0,,0,0,0,2020-06-13 00:20:23.091868+00:00
271,Santo Antônio de Lisboa,br,-27.5063601,-48.5199887,3,0.0,,0,0,0,2020-06-13 00:20:29.066136+00:00
272,Senador Firmino,br,-20.917238,-43.1005463,1,0.0,,0,0,0,2020-06-13 00:20:29.892170+00:00
273,Tabira,br,-7.584690900000001,-37.5381606,57,2.0,,4,0,0,2020-06-13 00:20:35.531981+00:00
274,Jupiá,br,-26.3955214,-52.7302727,15,0.0,,0,0,0,2020-06-13 00:20:07.973896+00:00
275,"Cobb County, Georgia",us,33.8999297,-84.56414699999999,37120,544.0,,575,2,0,2020-12-17 17:45:41.346197+00:00
276,Cambé,br,-23.2780418,-51.2810444,69,3.0,,1,0,0,2020-06-13 00:19:48.687761+00:00
277,Flores do Piauí,br,-7.788338199999999,-42.9183928,1,1.0,,0,0,0,2020-06-13 00:19:58.326888+00:00
278,Ibipitanga,br,-12.8808773,-42.4859544,5,0.0,,0,0,0,2020-06-13 00:20:01.493559+00:00
279,Lagoa do Tocantins,br,-10.3683963,-47.5384025,0,0.0,,0,0,0,2020-06-13 00:20:08.944929+00:00
280,Boqueirão do Piauí,br,-4.4842305,-42.1096711,2,0.0,,0,0,0,2020-06-13 00:19:46.373443+00:00
281,"Fredericksburg County, Virginia",us,38.3031837,-77.4605399,865,8.0,0.0,5,0,0,2020-12-17 17:48:16.112082+00:00
282,"Judith Basin County, Montana",us,47.0609367,-110.2577109,73,0.0,,1,0,0,2020-12-17 17:45:41.346197+00:00
283,Florânia,br,-6.1270766,-36.8182552,9,0.0,,0,0,0,2020-06-13 00:19:58.456418+00:00
284,Het Hogeland,nl,53.3005041,6.596372199999999,0,0.0,,0,0,0,2020-12-13 18:03:44.697940+00:00
285,Ibiara,br,-7.499547000000001,-38.4039358,5,0.0,,0,0,0,2020-06-13 00:20:01.382180+00:00
286,Imbuia,br,-27.4920242,-49.4224324,1,0.0,,0,0,0,2020-06-13 00:20:02.394991+00:00
287,Israelândia,br,-16.3655259,-50.8664451,2,0.0,,0,0,0,2020-06-13 00:20:03.462703+00:00
288,Lavandeira,br,-12.787652,-46.5092039,0,0.0,,0,0,0,2020-06-13 00:20:09.528896+00:00
289,"Granville County, North Carolina",us,36.2799451,-78.6114999,3177,60.0,,41,0,0,2020-12-17 17:45:41.346197+00:00
290,Guatapará,br,-21.4949365,-48.0361118,2,0.0,,0,0,0,2020-06-13 00:20:00.841904+00:00
291,"Fulton County, Pennsylvania",us,39.9048759,-78.1564432,558,7.0,,11,0,0,2020-12-17 17:45:41.346197+00:00
292,Encruzilhada do Sul,br,-30.5454936,-52.5257016,9,1.0,,0,0,0,2020-06-13 00:19:57.171870+00:00
293,Pedro Canário,br,-18.2963839,-39.9570654,39,2.0,,0,0,0,2020-06-13 00:20:19.920355+00:00
294,Itapecerica da Serra,br,-23.7153615,-46.8525874,664,51.0,,13,1,0,2020-06-13 00:20:04.324054+00:00
295,Ibicuí,br,-14.8433209,-39.9859037,10,0.0,,0,0,0,2020-06-13 00:20:01.459625+00:00
296,Mariápolis,br,-21.7963912,-51.1829113,1,0.0,,0,0,0,2020-06-13 00:20:12.192376+00:00
297,Monte Carlo,br,-27.1555133,-50.9080913,8,0.0,,4,0,0,2020-06-13 00:20:14.127373+00:00
298,Uru,br,-21.7845705,-49.2811677,3,1.0,,0,0,0,2020-06-13 00:20:38.530182+00:00
299,Itamonte,br,-22.2864029,-44.86844869999999,41,0.0,,0,0,0,2020-06-13 00:20:04.171711+00:00
300,Eindhoven,nl,51.44164199999999,5.4697225,2,0.0,,0,0,0,2020-12-13 18:03:44.697940+00:00
301,Joinville,br,-26.2834213,-48.8452269,569,23.0,,6,0,0,2020-06-13 00:20:07.317704+00:00
302,Lutécia,br,-22.3391503,-50.3941723,0,0.0,,0,0,0,2020-06-13 00:20:10.302371+00:00
303,"Sanpete County, Utah",us,39.3090085,-111.5706786,1842,8.0,,0,0,0,2020-12-18 17:45:39.083225+00:00
304,Urbano Santos,br,-3.2059127,-43.39881099999999,834,3.0,,-5,0,0,2020-06-13 00:20:38.515063+00:00
305,"Marion County, Missouri",us,39.8464028,-91.63721500000001,2155,23.0,,0,0,0,2020-12-18 17:45:39.083225+00:00
306,Ouriçangas,br,-12.0141706,-38.6280749,2,0.0,,0,0,0,2020-06-13 00:20:17.677005+00:00
307,"Yakima County, Washington",us,46.543606,-120.7558291,16715,300.0,0.0,0,0,0,2020-12-17 17:48:16.112082+00:00
308,"Aguas Buenas County, Puerto Rico",us,18.2568989,-66.1029442,410,0.0,0.0,4,0,0,2020-12-17 17:48:16.112082+00:00
309,Marema,br,-26.8034482,-52.6288755,6,1.0,,0,0,0,2020-06-13 00:20:11.906861+00:00
310,Carmópolis de Minas,br,-20.540812,-44.6386557,18,0.0,,0,0,0,2020-06-13 00:19:50.561911+00:00
311,Sarandi,br,-23.4445985,-51.8764341,37,1.0,,0,1,0,2020-06-13 00:20:29.553184+00:00
312,Schwäbisch Hall,de,49.1124645,9.7372649,3044,84.0,,0,0,0,2020-12-17 00:00:00+00:00
313,"Broomfield County, Colorado",us,39.9205411,-105.0866504,2544,61.0,,33,0,0,2020-12-17 17:45:41.346197+00:00
314,Pinheiros,br,-18.083333,-43.633333,53,3.0,,5,0,0,2020-06-13 00:20:20.882956+00:00
315,Rio de Janeiro,br,-22.9068467,-43.1728965,40017,4850.0,,0,0,0,2020-06-13 00:20:26.327257+00:00
316,Rostock,de,54.0924406,12.0991466,1529,18.0,,0,0,0,2020-12-17 00:00:00+00:00
317,Orós,br,-6.2446364,-38.9156022,94,1.0,,5,0,0,2020-06-13 00:20:17.587296+00:00
318,Antônio Carlos,br,-27.5179042,-48.7684179,31,4.0,,0,0,0,2020-06-13 00:19:42.098550+00:00
319,Schwerin,de,53.6355022,11.4012499,684,8.0,,0,0,0,2020-12-17 00:00:00+00:00
320,Tieling,cn,42.223828,123.726035,8,0.0,8.0,0,0,0,2020-12-18 17:54:48.508171+00:00
321,Ananindeua,br,-1.3650671,-48.3746372,3416,294.0,,0,0,0,2020-06-13 00:19:41.740055+00:00
322,Barretos,br,-20.5533374,-48.5703793,386,14.0,,34,0,0,2020-06-13 00:19:44.594080+00:00
323,"Cochise County, Arizona",us,31.82845799999999,-109.949686,5622,101.0,,100,1,0,2020-12-17 17:45:41.346197+00:00
324,Centenário,br,-9.0109993,-47.3706554,1,0.0,,0,0,0,2020-06-13 00:19:51.343350+00:00
325,Carnaubais,br,-5.342201,-36.8338191,21,0.0,,0,0,0,2020-06-13 00:19:50.582432+00:00
326,"Cherokee County, Kansas",us,37.1142482,-94.81059549999999,1481,13.0,,0,0,0,2020-12-18 17:45:39.083225+00:00
327,"Graves County, Kentucky",us,36.6887728,-88.7108964,2300,42.0,,30,1,0,2020-12-17 17:45:41.346197+00:00
328,Capim Branco,br,-19.5475298,-44.1301736,5,0.0,,0,0,0,2020-06-13 00:19:49.795017+00:00
329,Frutuoso Gomes,br,-6.1570849,-37.8378324,5,0.0,,0,0,0,2020-06-13 00:19:59.202693+00:00
330,Tacaratu,br,-9.1052044,-38.1498828,10,1.0,,2,0,0,2020-06-13 00:20:35.600650+00:00
331,São Rafael,br,-5.8019756,-36.8834071,23,2.0,,0,0,0,2020-06-13 00:20:34.948901+00:00
332,Guiyang,cn,26.647661,106.630153,36,1.0,35.0,0,0,0,2020-12-18 17:54:48.508171+00:00
333,"Beaver County, Oklahoma",us,36.7440186,-100.5296115,281,2.0,,2,0,0,2020-12-17 17:45:41.346197+00:00
334,"Kimball County, Nebraska",us,41.1856601,-103.6362715,303,4.0,,8,0,0,2020-12-17 17:45:41.346197+00:00
335,"Sharkey County, Mississippi",us,32.9860902,-90.8294002,362,17.0,,2,0,0,2020-12-17 17:45:41.346197+00:00
336,"Deschutes County, Oregon",us,43.83251,-121.2616541,3389,18.0,,47,0,0,2020-12-17 17:45:41.346197+00:00
337,Southwest China,cn,35.86166,104.195397,4,0.0,4.0,0,0,0,2020-12-18 17:54:48.508171+00:00
338,Dongcheng district,cn,39.92835300000001,116.416357,19,0.0,1.0,0,0,0,2020-12-18 17:54:48.508171+00:00
339,Caririaçu,br,-7.0417977,-39.2855054,28,3.0,,3,0,0,2020-06-13 00:19:50.401029+00:00
340,"Calloway County, Kentucky",us,36.6402766,-88.28504199999999,2105,19.0,,14,1,0,2020-12-17 17:45:41.346197+00:00
341,"Scotland County, Missouri",us,40.4921465,-92.18432849999999,216,2.0,,0,0,0,2020-12-18 17:45:39.083225+00:00
342,"Kiowa County, Colorado",us,38.3769671,-102.7135121,58,1.0,,2,0,0,2020-12-17 17:45:41.346197+00:00
343,Quindío,co,4.4610191,-75.667356,123,4.0,95.0,1,0,0,2020-06-13 00:20:43.704995+00:00
344,Bordj Bou Arréridj,dz,36.0704188,4.7564046,422,422.0,30.0,0,0,0,2020-12-18 17:48:45.484723+00:00
345,"Robertson County, Kentucky",us,38.5224338,-84.0378894,114,3.0,,0,0,0,2020-12-18 17:45:39.083225+00:00
346,Quixeramobim,br,-5.2915408,-39.4035876,434,19.0,,1,1,0,2020-06-13 00:20:25.023457+00:00
347,"Powell County, Montana",us,46.9311447,-112.9745473,774,5.0,,3,0,0,2020-12-17 17:45:41.346197+00:00
348,"Fountain County, Indiana",us,40.22271970000001,-87.3347575,1297,19.0,,12,0,0,2020-12-17 17:45:41.346197+00:00
349,"King William County, Virginia",us,37.7372121,-77.1485163,367,5.0,0.0,7,0,0,2020-12-17 17:48:16.112082+00:00
350,"Henry County, Georgia",us,33.4347963,-84.14351359999999,11084,148.0,,163,1,0,2020-12-17 17:45:41.346197+00:00
351,Itararé,br,-24.1089373,-49.33568589999999,5,0.0,,1,0,0,2020-06-13 00:20:04.866027+00:00
352,"Chippewa County, Wisconsin",us,45.0673752,-91.2924666,5628,65.0,0.0,35,2,0,2020-12-17 17:48:16.112082+00:00
353,"Camden County, New Jersey",us,39.8592439,-75.0143824,24930,750.0,,333,4,0,2020-12-17 17:45:41.346197+00:00
354,Mill en Sint Hubert,nl,51.6798065,5.7553811,0,0.0,,0,0,0,2020-12-13 18:03:44.697940+00:00
355,"Floyd County, Kentucky",us,37.5455463,-82.7778579,1603,9.0,,20,0,0,2020-12-17 17:45:41.346197+00:00
356,Algiers,dz,36.7724841,3.0551159,6506,6506.0,145.0,0,0,0,2020-12-18 17:48:45.122843+00:00
357,"Gilmer County, West Virginia",us,38.9203312,-80.8543847,262,0.0,0.0,4,-1,0,2020-12-17 17:48:16.112082+00:00
358,Kyiv,ua,50.4501,30.5234,95160,1631.0,29897.0,0,0,0,2020-12-18 17:54:56.532119+00:00
359,Roseira,br,-22.9007966,-45.3089952,8,1.0,,0,0,0,2020-06-13 00:20:26.617665+00:00
360,Maracanaú,br,-3.8674127,-38.6261113,2643,177.0,,17,4,0,2020-06-13 00:20:11.439857+00:00
361,Okinawa,jp,26.3343533,127.8056058,145,6.0,139.0,0,0,0,2020-06-13 00:21:00.696874+00:00
362,"Matagorda County, Texas",us,28.8204837,-95.9832577,1655,64.0,0.0,57,0,0,2020-12-17 17:48:16.112082+00:00
363,Enugu,ng,6.4583661,7.5463885,1332,21.0,1290.0,0,0,0,2020-12-18 17:48:45.970346+00:00
364,Linhares,br,-19.4021415,-40.0670118,607,12.0,,53,1,0,2020-06-13 00:20:09.937563+00:00
365,Machado,br,-21.6782427,-45.9223323,10,0.0,,0,0,0,2020-06-13 00:20:10.671049+00:00
366,"Deuel County, Nebraska",us,41.1401755,-102.3005803,64,0.0,,1,0,0,2020-12-17 17:45:41.346197+00:00
367,"Delaware County, Pennsylvania",us,39.907793,-75.3878525,25450,915.0,,232,51,0,2020-12-17 17:45:41.346197+00:00
368,"Montgomery County, Indiana",us,40.019879,-86.8220341,2424,38.0,,57,0,0,2020-12-17 17:45:41.346197+00:00
369,Vila Valério,br,-18.9954309,-40.3863296,49,1.0,,2,1,0,2020-06-13 00:20:39.592297+00:00
370,"Wayne County, Utah",us,38.3337024,-110.8076084,63,0.0,,0,0,0,2020-12-18 17:45:39.083225+00:00
371,Cariré,br,-3.9489642,-40.4763889,150,3.0,,1,1,0,2020-06-13 00:19:50.413075+00:00
372,"Hamlin County, South Dakota",us,44.6998712,-97.179026,567,30.0,0.0,3,1,0,2020-12-17 17:48:16.112082+00:00
373,"Beaver County, Utah",us,38.3266376,-113.287085,257,2.0,,0,0,0,2020-12-18 17:45:39.083225+00:00
374,"Tinian County, Northern Mariana Islands",us,15.0043455,145.6356577,2,0.0,,0,0,0,2020-12-17 17:45:41.346197+00:00
375,Minden-Lübbecke,de,52.33515380000001,8.7623421,5916,64.0,,0,0,0,2020-12-17 00:00:00+00:00
376,Meißen,de,51.1617842,13.4976592,5976,212.0,,0,0,0,2020-12-17 00:00:00+00:00
377,Kelheim,de,48.9184118,11.886563,2033,40.0,,0,0,0,2020-12-17 00:00:00+00:00
378,Landsberg a.Lech,de,48.050783,10.8703515,2126,25.0,,0,0,0,2020-12-17 00:00:00+00:00
379,Daxing District,cn,39.726929,116.341395,104,0.0,16.0,0,0,0,2020-12-18 17:54:48.508171+00:00
380,"Talbot County, Georgia",us,32.6891322,-84.5222189,262,9.0,,4,1,0,2020-12-17 17:45:41.346197+00:00
381,Lindóia do Sul,br,-27.0515862,-52.0831281,60,0.0,,0,0,0,2020-06-13 00:20:09.895325+00:00
382,"Real County, Texas",us,29.8851459,-99.8124935,171,10.0,0.0,1,0,0,2020-12-17 17:48:16.112082+00:00
383,Muricilândia,br,-7.147087699999999,-48.60956299999999,4,0.0,,0,0,0,2020-06-13 00:20:15.015478+00:00
384,Novo Jardim,br,-11.8204182,-46.6258357,0,0.0,,0,0,0,2020-06-11 22:48:51.176180+00:00
385,Loire-Atlantique,fr,47.27804680000001,-1.8157647,2370,379.0,1733.0,0,0,0,2020-12-18 17:53:11.973806+00:00
386,Losser,nl,52.2628522,7.005785299999999,0,0.0,,0,0,0,2020-12-13 18:03:44.697940+00:00
387,Itabela,br,-16.5766594,-39.5580624,26,0.0,,2,0,0,2020-06-13 00:20:03.532296+00:00
388,Buren,nl,51.9103889,5.334058400000001,0,0.0,,0,0,0,2020-12-13 18:03:44.697940+00:00
389,Ostprignitz-Ruppin,de,52.9645366,12.7526723,883,2.0,,0,0,0,2020-12-17 00:00:00+00:00
390,São Joaquim,br,-28.2924762,-49.9375744,8,0.0,,0,0,0,2020-06-13 00:20:32.813472+00:00
391,Mateiros,br,-10.5465668,-46.4180916,0,0.0,,0,0,0,2020-06-13 00:20:12.474986+00:00
392,Novo Alegre,br,-12.9157038,-46.576126,1,1.0,,0,0,0,2020-06-13 00:20:16.861433+00:00
393,Monte Santo do Tocantins,br,-10.0078852,-48.9945141,0,0.0,,0,0,0,2020-06-13 00:20:14.216337+00:00
394,"Lincoln County, Arkansas",us,33.9185116,-91.714958,2704,20.0,,8,0,0,2020-12-17 17:45:41.346197+00:00
395,Maasdriel,nl,51.7689071,5.3233045,0,0.0,,0,0,0,2020-12-13 18:03:44.697940+00:00
396,"Decatur County, Georgia",us,30.8720058,-84.5222189,1808,48.0,,12,0,0,2020-12-17 17:45:41.346197+00:00
397,"Douglas County, Minnesota",us,45.9279387,-95.4218815,3245,52.0,,18,0,0,2020-12-17 17:45:41.346197+00:00
398,"Houston County, Tennessee",us,36.283619,-87.658113,712,21.0,0.0,5,0,0,2020-12-17 17:48:16.112082+00:00
399,"Upson County, Georgia",us,32.9047684,-84.3121264,1768,81.0,,30,0,0,2020-12-17 17:45:41.346197+00:00
400,Várzea Nova,br,-11.2531193,-40.9466551,1,0.0,,0,0,0,2020-06-13 00:20:39.955558+00:00
401,"Tippecanoe County, Indiana",us,40.34697310000001,-86.8220341,13083,54.0,,207,1,0,2020-12-17 17:45:41.346197+00:00
402,"Edgecombe County, North Carolina",us,35.8840053,-77.6536125,2940,78.0,,16,0,0,2020-12-17 17:45:41.346197+00:00
403,Aragoiânia,br,-16.909152,-49.44809919999999,8,0.0,,0,0,0,2020-06-13 00:19:42.503049+00:00
404,Bronckhorst,nl,52.0755954,6.180891799999999,1,0.0,,0,0,0,2020-12-13 18:03:44.697940+00:00
405,Santa Maria da Boa Vista,br,-8.7996918,-39.8270656,6,0.0,,0,0,0,2020-06-13 00:20:28.071239+00:00
406,"Hardin County, Kentucky",us,37.6565708,-86.0121573,5409,38.0,,113,1,0,2020-12-17 17:45:41.346197+00:00
407,"Alexander County, North Carolina",us,35.8974199,-81.20781640000001,2133,21.0,,24,0,0,2020-12-17 17:45:41.346197+00:00
408,"Montgomery County, Mississippi",us,33.5274427,-89.62516459999999,908,30.0,,6,0,0,2020-12-17 17:45:41.346197+00:00
409,Morro da Garça,br,-18.5434594,-44.6020131,2,1.0,,0,0,0,2020-06-13 00:20:14.597913+00:00
410,Sobradinho,br,-15.6580179,-47.7925346,62,2.0,,10,0,0,2020-06-13 00:20:31.192905+00:00
411,Tomé-Açu,br,-2.4183942,-48.1545546,378,25.0,,0,0,0,2020-06-13 00:20:36.886857+00:00
412,Ipameri,br,-17.722004,-48.1585601,9,0.0,,0,0,0,2020-06-13 00:20:02.812522+00:00
413,"Coshocton County, Ohio",us,40.27358230000001,-81.9534815,1434,15.0,,71,0,0,2020-12-17 17:45:41.346197+00:00
414,"McIntosh County, Oklahoma",us,35.3466151,-95.6457951,1079,14.0,,7,0,0,2020-12-17 17:45:41.346197+00:00
415,"Poquoson County, Virginia",us,37.1223664,-76.3457773,255,3.0,0.0,9,0,0,2020-12-17 17:48:16.112082+00:00
416,Castile and León,es,41.83568210000001,-4.397635699999999,18512,1953.0,8716.0,0,0,0,2020-05-22 14:18:25.542712+00:00
417,Jussari,br,-15.1880343,-39.4941705,5,0.0,,0,0,0,2020-06-13 00:20:08.220699+00:00
418,Eemnes,nl,52.2537461,5.2612754,0,0.0,,0,0,0,2020-12-13 18:03:44.697940+00:00
419,"Guayanilla County, Puerto Rico",us,18.0373245,-66.7962869,148,0.0,0.0,4,0,0,2020-12-17 17:48:16.112082+00:00
420,Salgado de São Félix,br,-7.3555209,-35.4401442,43,0.0,,3,0,0,2020-06-13 00:20:26.939322+00:00
421,Tiaret,dz,35.3673553,1.3220322,959,959.0,22.0,0,0,0,2020-12-18 17:48:45.068542+00:00
422,Osun,ng,7.562896399999999,4.5199593,942,20.0,906.0,0,0,0,2020-12-18 17:48:45.999779+00:00
423,Vitória do Mearim,br,-3.4604085,-44.8722032,142,2.0,,0,0,0,2020-06-13 00:20:39.786222+00:00
424,"Unassigned County, Arizona",us,34.0489281,-111.0937311,11,0.0,0.0,0,0,0,2020-12-15 05:49:22.919745+00:00
425,São Desidério,br,-12.3576313,-44.9772871,37,0.0,,4,0,0,2020-06-13 00:20:32.003894+00:00
426,Borebi,br,-22.569845,-48.9725204,5,0.0,,0,0,0,2020-06-13 00:19:46.491492+00:00
427,Conquista D'Oeste,br,-14.5587835,-59.5725012,7,0.0,,0,0,0,2020-06-13 00:19:53.147839+00:00
428,Altötting,de,48.2246432,12.6767839,2661,86.0,,0,0,0,2020-12-17 00:00:00+00:00
429,São João do Sul,br,-29.2243477,-49.8101067,8,0.0,,0,0,0,2020-06-13 00:20:34.100571+00:00
430,Rurópolis,br,-4.093660499999999,-54.911215,110,3.0,,0,0,0,2020-06-13 00:20:26.728638+00:00
431,Sete Barras,br,-24.3844767,-47.92799369999999,13,0.0,,1,0,0,2020-06-13 00:20:30.850809+00:00
432,Tathleeth,sa,19.5342205,43.5029884,1,0.0,0.0,0,0,0,2020-05-10 16:49:37.538170+00:00
433,Candeias,br,-12.6869653,-38.46396319999999,6,0.0,,0,0,0,2020-06-13 00:19:49.421595+00:00
434,Caraúbas,br,-5.7851377,-37.5598274,62,0.0,,0,0,0,2020-06-13 00:19:50.247028+00:00
435,Nova Santa Rita,br,-29.8508291,-51.27406209999999,7,0.0,,0,0,0,2020-06-13 00:20:16.681476+00:00
436,Santa Cruz da Esperança,br,-21.2918668,-47.4288793,5,0.0,,1,0,0,2020-06-13 00:20:27.463193+00:00
437,Paranã,br,-25.2520888,-52.0215415,0,0.0,,0,0,0,2020-06-13 00:20:18.700264+00:00
438,"Curry County, Oregon",us,42.54405029999999,-124.2781762,225,2.0,,1,0,0,2020-12-17 17:45:41.346197+00:00
439,"Anchorage County, Alaska",us,61.2180556,-149.9002778,21181,105.0,0.0,201,2,0,2020-12-17 17:48:16.112082+00:00
440,Pirajuba,br,-19.9096755,-48.70314219999999,3,0.0,,0,0,0,2020-06-13 00:20:21.083651+00:00
441,"Barnstable County, Massachusetts",us,41.69909579999999,-70.32091129999999,4403,211.0,,0,0,0,2020-12-18 17:45:39.083225+00:00
442,"Jim Hogg County, Texas",us,26.995506,-98.7481167,283,10.0,0.0,14,0,0,2020-12-17 17:48:16.112082+00:00
443,"Adjuntas County, Puerto Rico",us,18.1634848,-66.723158,248,0.0,0.0,17,0,0,2020-12-17 17:48:16.112082+00:00
444,Guaraci,br,-20.4999964,-48.9442224,4,0.0,,0,0,0,2020-06-13 00:20:00.480038+00:00
445,Pombal,br,-6.7708458,-37.7973839,89,0.0,,1,0,0,2020-06-13 00:20:21.858815+00:00
446,Campo Largo,br,-25.4596855,-49.5273149,77,2.0,,11,0,0,2020-06-13 00:19:49.051148+00:00
447,São Sebastião da Grama,br,-21.7099531,-46.821526,8,1.0,,0,0,0,2020-06-13 00:20:35.088277+00:00
448,Marumbi,br,-23.7062415,-51.6408616,2,0.0,,0,0,0,2020-06-13 00:20:12.341858+00:00
449,"Macon County, Tennessee",us,36.4983882,-85.971322,2281,34.0,0.0,39,1,0,2020-12-17 17:48:16.112082+00:00
450,Caquetá,co,0.869892,-73.8419063,25,1.0,21.0,0,0,0,2020-06-13 00:20:43.704995+00:00
451,São Joaquim do Monte,br,-8.430767,-35.8109449,56,4.0,,4,0,0,2020-06-13 00:20:32.799232+00:00
452,Djelfa,dz,34.6751691,3.2684215,1213,1213.0,11.0,0,0,0,2020-12-18 17:48:45.141379+00:00
453,Machadinho D'Oeste,br,-9.4200293,-62.0099694,27,1.0,,0,0,0,2020-06-13 00:20:10.637875+00:00
454,Montfoort,nl,52.0362127,4.9518586,0,0.0,,0,0,0,2020-12-13 18:03:44.697940+00:00
455,"Wheeler County, Oregon",us,44.6659766,-120.0829624,12,0.0,,1,0,0,2020-12-17 17:45:41.346197+00:00
456,Maracás,br,-13.5307334,-40.5533995,8,1.0,,3,0,0,2020-06-13 00:20:11.480259+00:00
457,Rancharia,br,-22.2308034,-50.8959841,12,1.0,,0,0,0,2020-06-13 00:20:25.086426+00:00
458,"Lee County, Iowa",us,40.70686630000001,-91.44346900000001,2645,23.0,,24,2,0,2020-12-17 17:45:41.346197+00:00
459,"Brown County, Kansas",us,39.770047,-95.4777811,929,17.0,,0,0,0,2020-12-18 17:45:39.083225+00:00
460,Macaíba,br,-5.8579697,-35.3536252,216,12.0,,0,0,0,2020-06-13 00:20:10.577662+00:00
461,"Gila County, Arizona",us,33.6370567,-110.5215459,3826,115.0,,65,1,0,2020-12-17 17:45:41.346197+00:00
462,"Graham County, Kansas",us,39.3198302,-99.8124935,190,2.0,,0,0,0,2020-12-18 17:45:39.083225+00:00
463,Mulungu,br,-4.3033215,-38.9954814,64,1.0,,8,1,0,2020-06-13 00:20:14.867740+00:00
464,Elburg,nl,52.4492631,5.834519299999999,0,0.0,,0,0,0,2020-12-13 18:03:44.697940+00:00
465,"Union County, Pennsylvania",us,40.9894888,-77.0564464,2323,24.0,,44,0,0,2020-12-17 17:45:41.346197+00:00
466,"Addison County, Vermont",us,44.1197293,-73.164338,226,4.0,0.0,1,0,0,2020-12-17 17:48:16.112082+00:00
467,"Sedgwick County, Kansas",us,37.6537367,-97.5247243,34248,220.0,,0,0,0,2020-12-18 17:45:39.083225+00:00
468,Valle d'Aosta,it,45.73750286,7.320149366,6986,365.0,6121.0,24,3,16,2020-12-18 17:53:09.402802+00:00
469,Wittmund,de,53.57663110000001,7.773288999999999,382,5.0,,0,0,0,2020-12-17 00:00:00+00:00
470,Rancho Queimado,br,-27.6735003,-49.0124253,2,0.0,,0,0,0,2020-06-13 00:20:25.116616+00:00
471,"Butler County, Kentucky",us,37.2086395,-86.7013894,733,16.0,,14,0,0,2020-12-17 17:45:41.346197+00:00
472,Ibotirama,br,-12.178205,-43.2180949,3,0.0,,0,0,0,2020-06-13 00:20:01.736268+00:00
473,"Garfield County, Washington",us,46.5185629,-117.5276611,72,1.0,0.0,0,0,0,2020-12-17 17:48:16.112082+00:00
474,"McCone County, Montana",us,47.4500913,-105.8810734,132,0.0,,4,0,0,2020-12-17 17:45:41.346197+00:00
475,"Lorain County, Ohio",us,41.4116881,-82.12783999999999,12162,139.0,,283,7,0,2020-12-17 17:45:41.346197+00:00
476,Hengshui,cn,37.73892000000001,115.670177,8,0.0,8.0,0,0,0,2020-12-18 17:54:48.508171+00:00
477,Buriti dos Montes,br,-5.3135422,-41.0956663,4,1.0,,0,0,0,2020-06-13 00:19:47.235093+00:00
478,Campo Novo de Rondônia,br,-10.5701854,-63.618905,22,1.0,,0,0,0,2020-06-13 00:19:49.113292+00:00
479,Capitão Leônidas Marques,br,-25.4932041,-53.60060319999999,4,0.0,,1,0,0,2020-06-13 00:19:49.887657+00:00
480,"Socorro County, New Mexico",us,33.8837087,-106.7234639,821,36.0,,9,1,0,2020-12-17 17:45:41.346197+00:00
481,Monte Alegre de Goiás,br,-13.24387,-47.157841,2,0.0,,0,0,0,2020-06-13 00:20:13.955138+00:00
482,Palmeirante,br,-7.862463600000001,-47.936023,6,0.0,,0,0,0,2020-06-13 00:20:18.200742+00:00
483,Pindorama do Tocantins,br,-11.1353951,-47.5780577,3,0.0,,0,0,0,2020-06-13 00:20:20.749514+00:00
484,Pium,br,-10.4427779,-49.1798964,1,0.0,,0,0,0,2020-06-13 00:20:21.563489+00:00
485,"Liberty County, Florida",us,30.1507777,-84.8567932,664,14.0,,7,0,0,2020-12-17 17:45:41.346197+00:00
486,"Decatur County, Indiana",us,39.3176186,-85.52002399999999,1895,61.0,,23,3,0,2020-12-17 17:45:41.346197+00:00
487,Piraquê,br,-6.7693867,-48.2942688,1,0.0,,0,0,0,2020-06-13 00:20:21.276876+00:00
488,Colinas,br,-6.0433667,-44.1720266,13,0.0,,0,0,0,2020-06-13 00:19:52.423304+00:00
489,Tenente Laurentino Cruz,br,-6.146944599999999,-36.7182992,12,0.0,,0,0,0,2020-06-13 00:20:36.262751+00:00
490,"Clay County, North Carolina",us,35.0964003,-83.7199136,316,5.0,,0,0,0,2020-12-18 17:45:39.083225+00:00
491,"Ottawa County, Kansas",us,39.14938360000001,-97.69822719999999,351,0.0,,0,0,0,2020-12-18 17:45:39.083225+00:00
492,Viamão,br,-30.0722165,-51.0969571,74,9.0,,0,0,0,2020-06-13 00:20:39.339027+00:00
493,Teofilândia,br,-11.4820945,-38.9979049,116,0.0,,23,0,0,2020-06-13 00:20:36.312113+00:00
494,Itabirinha,br,-18.5683612,-41.2345276,6,0.0,,5,0,0,2020-06-13 00:20:03.628494+00:00
495,Videira,br,-27.0052075,-51.15439500000001,31,0.0,,0,0,0,2020-06-13 00:20:39.442811+00:00
496,Exu,br,-7.5761549,-39.734338,3,1.0,,0,0,0,2020-06-13 00:19:57.831583+00:00
497,Neckar-Odenwald-Kreis,de,49.44406679999999,9.2454855,2294,50.0,,0,0,0,2020-12-17 00:00:00+00:00
498,Iguatemi,br,-23.6759953,-54.56010269999999,3,1.0,,2,0,0,2020-06-13 00:20:02.148221+00:00
499,"Ashland County, Ohio",us,40.9435588,-82.3017728,2129,36.0,,51,0,0,2020-12-17 17:45:41.346197+00:00
500,Água Azul do Norte,br,-6.8033725,-50.48631510000001,13,0.0,,0,0,0,2020-06-13 00:20:40.242091+00:00
501,Água Branca,br,-9.2613574,-37.9361482,126,10.0,,0,0,0,2020-06-13 00:20:40.288760+00:00
502,São João do Pau d'Alho,br,-21.2698692,-51.6653126,1,0.0,,0,0,0,2020-06-13 00:20:34.009880+00:00
503,"Potter County, Pennsylvania",us,41.6682559,-77.8367282,461,10.0,,13,0,0,2020-12-17 17:45:41.346197+00:00
504,Visconde do Rio Branco,br,-21.013792,-42.8376099,9,1.0,,0,0,0,2020-06-13 00:20:39.657006+00:00
505,Shantou,cn,23.354091,116.681972,26,0.0,26.0,0,0,0,2020-12-18 17:54:48.508171+00:00
506,Lauro de Freitas,br,-12.8820575,-38.3148204,768,11.0,,48,1,0,2020-06-13 00:20:09.510193+00:00
507,"Bacon County, Georgia",us,31.5412085,-82.4319405,863,24.0,,5,0,0,2020-12-17 17:45:41.346197+00:00
508,Nanjing,cn,32.060255,118.796877,93,0.0,93.0,0,0,0,2020-12-18 17:54:48.508171+00:00
509,"Maury County, Tennessee",us,35.6195242,-87.14228949999999,7893,94.0,0.0,169,0,0,2020-12-17 17:48:16.112082+00:00
510,Nederweert,nl,51.2865631,5.752701399999999,0,0.0,,0,0,0,2020-12-13 18:03:44.697940+00:00
511,Guarabira,br,-6.8512654,-35.4922717,1098,11.0,,68,2,0,2020-06-13 00:20:00.458075+00:00
512,Itatiba do Sul,br,-27.3851188,-52.454285,4,0.0,,0,0,0,2020-06-13 00:20:04.945457+00:00
513,"Franklin County, Virginia",us,36.9458815,-79.8296743,2025,20.0,0.0,31,0,0,2020-12-17 17:48:16.112082+00:00
514,Icatu,br,-2.7738739,-44.062008,82,1.0,,0,0,0,2020-06-13 00:20:01.786986+00:00
515,Prainha,br,-1.8016239,-53.4805211,50,2.0,,0,0,0,2020-06-13 00:20:23.633738+00:00
516,"Toa Alta County, Puerto Rico",us,18.3821616,-66.2547027,1955,0.0,0.0,18,0,0,2020-12-17 17:48:16.112082+00:00
517,"Petersburg County, Virginia",us,37.2279279,-77.40192669999999,1249,31.0,0.0,7,0,0,2020-12-17 17:48:16.112082+00:00
518,Tindouf,dz,27.6761012,-8.1276526,205,205.0,1.0,0,0,0,2020-12-18 17:48:45.517686+00:00
519,ʻAfif,sa,23.9052203,42.9124955,100,0.0,71.0,0,0,0,2020-07-01 06:48:20.018517+00:00
520,Lagoa da Canoa,br,-9.830487,-36.7363876,44,2.0,,3,0,0,2020-06-13 00:20:08.695023+00:00
521,Val-d'Oise,fr,49.0615901,2.1581351,6403,1134.0,4822.0,0,0,0,2020-12-18 17:53:11.999317+00:00
522,Groß-Gerau,de,49.9203655,8.4847038,6207,91.0,,0,0,0,2020-12-17 00:00:00+00:00
523,Kyiv Oblast,ua,50.0529506,30.7667134,50040,840.0,21612.0,0,0,0,2020-12-18 17:54:56.411653+00:00
524,Shijiazhuang,cn,38.042805,114.514893,29,0.0,29.0,0,0,0,2020-12-18 17:54:48.508171+00:00
525,"Moffat County, Colorado",us,40.6138379,-108.2377519,478,18.0,,12,0,0,2020-12-17 17:45:41.346197+00:00
526,Volgograd Oblast,ru,49.7604522,45.0,31577,388.0,29967.0,0,0,0,2020-12-18 17:54:55.077257+00:00
527,Santa Rita,br,-7.075819999999999,-34.994751,858,80.0,,36,0,0,2020-06-13 00:20:28.326804+00:00
528,Camacan,br,-15.4201038,-39.49640369999999,150,1.0,,16,0,0,2020-06-13 00:19:48.539639+00:00
529,"Harvey County, Kansas",us,38.0025215,-97.35165579999999,2226,22.0,,0,0,0,2020-12-18 17:45:39.083225+00:00
530,"St. Bernard County, Louisiana",us,29.879791,-89.3226954,2085,38.0,,11,0,0,2020-12-17 17:45:41.346197+00:00
531,Camanducaia,br,-22.753817,-46.1419896,68,1.0,,1,0,0,2020-06-13 00:19:48.560164+00:00
532,Goiatuba,br,-18.0127526,-49.36668419999999,16,2.0,,0,0,0,2020-06-13 00:19:59.779810+00:00
533,Itapetininga,br,-23.5890378,-48.0488371,151,9.0,,5,0,0,2020-06-13 00:20:04.451710+00:00
534,Montes Claros,br,-16.7286406,-43.8582139,116,3.0,,0,0,0,2020-06-13 00:20:14.344363+00:00
535,"Baca County, Colorado",us,37.394731,-102.5298028,162,0.0,,3,0,0,2020-12-17 17:45:41.346197+00:00
536,São João da Ponta,br,-0.8577566999999999,-47.9812152,10,1.0,,0,0,0,2020-06-13 00:20:33.657242+00:00
537,Urupês,br,-21.2036795,-49.2935587,3,0.0,,0,0,0,2020-06-13 00:20:38.696118+00:00
538,Vargem Alegre,br,-19.6021959,-42.2992695,21,0.0,,0,0,0,2020-06-13 00:20:38.968498+00:00
539,Ponte Alta do Bom Jesus,br,-12.089297,-46.4778774,0,0.0,,0,0,0,2020-06-11 22:48:55.645265+00:00
540,"Kootenai County, Idaho",us,47.7568407,-116.6222056,10788,102.0,,140,0,0,2020-12-17 17:45:41.346197+00:00
541,"Marshall County, Kansas",us,39.717719,-96.49297969999999,781,21.0,,29,3,0,2020-12-17 17:45:41.346197+00:00
542,"Blaine County, Montana",us,48.6065395,-108.9462246,581,20.0,,2,0,0,2020-12-17 17:45:41.346197+00:00
543,"Elko County, Nevada",us,41.2220182,-115.2837585,3520,31.0,,30,0,0,2020-12-17 17:45:41.346197+00:00
544,"Dodge County, Georgia",us,32.1287268,-83.2077645,1229,58.0,,13,0,0,2020-12-17 17:45:41.346197+00:00
545,"Jackson County, Tennessee",us,36.4004931,-85.64348700000001,854,18.0,0.0,9,1,0,2020-12-17 17:48:16.112082+00:00
546,"Ravalli County, Montana",us,46.0174639,-114.1817423,1965,17.0,,21,1,0,2020-12-17 17:45:41.346197+00:00
547,Acauã,br,-8.2161524,-41.0820695,2,0.0,,0,0,0,2020-06-13 00:19:40.236016+00:00
548,Jandaia,br,-17.0485961,-50.1457779,1,0.0,,0,0,0,2020-06-13 00:20:06.211186+00:00
549,Kapelle,nl,51.4847546,3.9596313,0,0.0,,0,0,0,2020-12-13 18:03:44.697940+00:00
550,Lozère,fr,44.494203,3.5812692,231,52.0,162.0,0,0,0,2020-12-18 17:53:11.972808+00:00
551,Tissemsilt,dz,35.6015182,1.8074586,435,435.0,5.0,0,0,0,2020-12-18 17:48:45.530301+00:00
552,Joanésia,br,-19.173377,-42.6778814,6,0.0,,0,0,0,2020-06-13 00:20:07.165014+00:00
553,nordland,no,67.097529,14.5736286,614,,,5,0,0,2020-12-18 17:48:46.317418+00:00
554,Novo Triunfo,br,-10.3186649,-38.4017219,3,0.0,,0,0,0,2020-06-13 00:20:17.100064+00:00
555,Alagoinhas,br,-12.1339689,-38.4211223,192,3.0,,11,0,0,2020-06-13 00:19:40.593826+00:00
556,"McNairy County, Tennessee",us,35.1183208,-88.55653099999999,1709,34.0,0.0,46,-1,0,2020-12-17 17:48:16.112082+00:00
557,Abia,ng,5.4527354,7.5248414,926,9.0,908.0,0,0,0,2020-12-18 17:48:46.018484+00:00
558,"Tom Green County, Texas",us,31.3839017,-100.439656,11014,161.0,0.0,103,1,0,2020-12-17 17:48:16.112082+00:00
559,Ponta Grossa,br,-25.0949322,-50.1545956,126,1.0,,5,0,0,2020-06-13 00:20:21.931120+00:00
560,"Uintah County, Utah",us,40.1069499,-109.3783206,1056,8.0,,0,0,0,2020-12-18 17:45:39.083225+00:00
561,Carmo do Rio Verde,br,-15.3527972,-49.70689040000001,3,0.0,,0,0,0,2020-06-13 00:19:50.530624+00:00
562,"Barry County, Michigan",us,42.5354321,-85.35496499999999,2745,26.0,,15,1,0,2020-12-17 17:45:41.346197+00:00
563,"Wayne County, Tennessee",us,35.282369,-87.77633329999999,2224,16.0,0.0,29,1,0,2020-12-17 17:48:16.112082+00:00
564,"Miami County, Indiana",us,40.77009899999999,-86.05296039999999,2401,23.0,,40,0,0,2020-12-17 17:45:41.346197+00:00
565,Otacílio Costa,br,-27.506772,-50.1138045,9,0.0,,0,0,0,2020-06-13 00:20:17.632128+00:00
566,Machadinho,br,-27.5658948,-51.6677289,6,0.0,,0,0,0,2020-06-13 00:20:10.657761+00:00
567,"New Castle County, Delaware",us,39.5392979,-75.667356,28075,418.0,,473,7,0,2020-12-17 17:45:41.346197+00:00
568,São José da Tapera,br,-9.517963,-37.5108091,55,1.0,,0,0,0,2020-06-13 00:20:32.947820+00:00
569,Bishah,sa,19.9763524,42.5901672,530,1.0,253.0,0,0,0,2020-07-01 06:48:18.901468+00:00
570,"Stafford County, Kansas",us,38.0749046,-98.7481167,249,5.0,,0,0,0,2020-12-18 17:45:39.083225+00:00
571,Barbacena,br,-21.2219344,-43.7706811,315,4.0,,5,0,0,2020-06-13 00:19:44.166958+00:00
572,"Shawano County, Wisconsin",us,44.7683909,-88.7108964,4287,60.0,0.0,39,7,0,2020-12-17 17:48:16.112082+00:00
573,Emmen,nl,52.7132367,6.9557766,0,0.0,,0,0,0,2020-12-13 18:03:44.697940+00:00
574,Lavínia,br,-21.1655953,-51.0427981,2,0.0,,0,0,0,2020-06-13 00:20:09.605257+00:00
575,Muaná,br,-1.5304724,-49.2191679,108,9.0,,0,0,0,2020-06-13 00:20:14.751146+00:00
576,Møre og Romsdal,no,62.84068329999999,7.007143,123,,,0,0,0,2020-05-12 17:01:46.303585+00:00
577,Amparo do Serra,br,-20.5421677,-42.8052768,1,0.0,,0,0,0,2020-06-13 00:19:41.588018+00:00
578,"Tuscola County, Michigan",us,43.5301144,-83.5070203,2315,80.0,,26,0,0,2020-12-17 17:45:41.346197+00:00
579,Cauca,co,2.7049813,-76.8259652,166,8.0,69.0,3,1,3,2020-06-13 00:20:43.704995+00:00
580,"Kent County, Texas",us,33.2438434,-100.7097867,52,1.0,0.0,7,0,0,2020-12-17 17:48:16.112082+00:00
581,"Lincoln County, Oregon",us,44.609549,-123.9423591,793,16.0,,8,0,0,2020-12-17 17:45:41.346197+00:00
582,"Grimes County, Texas",us,30.4829853,-95.9832577,1658,41.0,0.0,16,0,0,2020-12-17 17:48:16.112082+00:00
583,Stadskanaal,nl,52.9919853,6.9462217,0,0.0,,0,0,0,2020-12-13 18:03:44.697940+00:00
584,Andaraí,br,-12.8053595,-41.3300344,2,0.0,,0,0,0,2020-06-13 00:19:41.815187+00:00
585,Wetteraukreis,de,50.3794495,8.9120439,4779,86.0,,0,0,0,2020-12-17 00:00:00+00:00
586,"Baylor County, Texas",us,33.5373926,-99.2785583,158,6.0,0.0,4,0,0,2020-12-17 17:48:16.112082+00:00
587,"Kittitas County, Washington",us,47.17495479999999,-120.931941,1452,23.0,0.0,0,0,0,2020-12-17 17:48:16.112082+00:00
588,"Leslie County, Kentucky",us,37.0698286,-83.3789389,395,1.0,,5,0,0,2020-12-17 17:45:41.346197+00:00
589,Balneário Piçarras,br,-26.7547956,-48.7291822,58,1.0,,1,0,0,2020-06-13 00:19:44.021853+00:00
590,"Clark County, Indiana",us,38.4492903,-85.7256372,7182,107.0,,118,1,0,2020-12-17 17:45:41.346197+00:00
591,Taraba,ng,7.9993616,10.7739863,155,6.0,129.0,0,0,0,2020-12-18 17:48:46.124359+00:00
592,Aramari,br,-12.0888414,-38.4972879,3,0.0,,0,0,0,2020-06-13 00:19:42.620293+00:00
593,Londrina,br,-23.3044524,-51.1695824,768,33.0,,49,0,0,2020-06-13 00:20:10.093802+00:00
594,Gers,fr,43.6366479,0.4502368,260,55.0,174.0,0,0,0,2020-12-18 17:53:11.963704+00:00
595,"Sterling County, Texas",us,31.78149299999999,-101.0711758,86,1.0,0.0,1,0,0,2020-12-17 17:48:16.112082+00:00
596,Muniz Ferreira,br,-13.009675,-39.1096045,5,0.0,,2,0,0,2020-06-13 00:20:14.919772+00:00
597,Al Judayyidah,sa,31.2400269,41.4262338,38,0.0,0.0,0,0,0,2020-05-10 16:49:37.600772+00:00
598,"Cottle County, Texas",us,34.159117,-100.3497895,128,5.0,0.0,4,0,0,2020-12-17 17:48:16.112082+00:00
599,Junco do Seridó,br,-6.9922406,-36.714242,12,1.0,,0,0,0,2020-06-13 00:20:07.847500+00:00
600,Nipoã,br,-20.9095655,-49.7827761,1,0.0,,0,0,0,2020-06-13 00:20:15.568734+00:00
601,Blaricum,nl,52.2726695,5.248079499999999,1,0.0,,0,0,0,2020-12-13 18:03:44.697940+00:00
602,Bodó,br,-5.9865918,-36.4135307,1,0.0,,0,0,0,2020-06-13 00:19:45.848745+00:00
603,Santo Antônio do Içá,br,-3.102811,-67.946675,891,16.0,,0,0,0,2020-06-13 00:20:29.157153+00:00
604,"Craven County, North Carolina",us,35.0877672,-77.0564464,4209,79.0,,129,1,0,2020-12-17 17:45:41.346197+00:00
605,Staphorst,nl,52.6426977,6.200626499999999,0,0.0,,0,0,0,2020-12-13 18:03:44.697940+00:00
606,Vila Velha,br,-20.3477821,-40.2949528,4420,168.0,,238,7,0,2020-06-13 00:20:39.602717+00:00
607,"Jayuya County, Puerto Rico",us,18.2185674,-66.5915617,137,0.0,0.0,0,0,0,2020-12-17 17:48:16.112082+00:00
608,João Ramalho,br,-22.2478133,-50.7698346,3,0.0,,0,0,0,2020-06-13 00:20:07.606801+00:00
609,"Coke County, Texas",us,31.82776629999999,-100.5296115,344,9.0,0.0,4,0,0,2020-12-17 17:48:16.112082+00:00
610,Pesqueira,br,-8.358181,-36.6980333,120,5.0,,3,0,0,2020-06-13 00:20:20.413006+00:00
611,Carmo da Cachoeira,br,-21.4611774,-45.2202506,4,0.0,,0,0,0,2020-06-13 00:19:50.467188+00:00
612,Carolina,br,-7.176516700000001,-47.2923893,80,0.0,,0,0,0,2020-06-13 00:19:50.655264+00:00
613,"Schuyler County, Missouri",us,40.4857709,-92.49999179999999,176,1.0,,0,0,0,2020-12-18 17:45:39.083225+00:00
614,Cajueiro da Praia,br,-2.9314859,-41.3411687,18,1.0,,0,0,0,2020-06-13 00:19:48.392575+00:00
615,"Yuma County, Colorado",us,40.1448234,-102.2547919,484,5.0,,20,1,0,2020-12-17 17:45:41.346197+00:00
616,"Monongalia County, West Virginia",us,39.6695849,-79.96403389999999,4422,11.0,0.0,103,3,0,2020-12-17 17:48:16.112082+00:00
617,Floresta do Piauí,br,-7.467935799999999,-41.8004174,3,0.0,,0,0,0,2020-06-13 00:19:58.370457+00:00
618,Cardoso,br,-20.0810054,-49.9136543,0,0.0,,0,0,0,2020-06-13 00:19:50.289248+00:00
619,"New Hanover County, North Carolina",us,34.2154913,-77.88245959999999,8435,68.0,,62,0,0,2020-12-17 17:45:41.346197+00:00
620,Nova Londrina,br,-22.7643887,-52.9872677,10,0.0,,0,0,0,2020-06-13 00:20:16.332194+00:00
621,Cruzeta,br,-6.4123259,-36.7876374,13,0.0,,0,0,0,2020-06-13 00:19:54.713906+00:00
622,Rio das Flores,br,-22.1788684,-43.5907233,6,1.0,,0,0,0,2020-06-13 00:20:26.296127+00:00
623,"Rawlins County, Kansas",us,39.8600904,-101.0711758,285,3.0,,0,0,0,2020-12-18 17:45:39.083225+00:00
624,"Wilkes County, Georgia",us,33.808264,-82.7778579,539,10.0,,7,0,0,2020-12-17 17:45:41.346197+00:00
625,Capoeiras,br,-8.737943099999999,-36.626005,16,2.0,,1,0,0,2020-06-13 00:19:49.971362+00:00
626,"Robertson County, Texas",us,31.0080004,-96.49297969999999,765,9.0,0.0,18,0,0,2020-12-17 17:48:16.112082+00:00
627,Lajinha,br,-20.1532675,-41.6228953,11,0.0,,0,0,0,2020-06-13 00:20:09.240619+00:00
628,"Yamhill County, Oregon",us,45.1771983,-123.2395303,2300,30.0,,27,1,0,2020-12-17 17:45:41.346197+00:00
629,"Hall County, Nebraska",us,40.8817333,-98.5721016,5505,88.0,,0,0,0,2020-12-17 17:45:41.346197+00:00
630,"Vernon County, Wisconsin",us,43.5576968,-90.8294002,1415,20.0,0.0,20,0,0,2020-12-17 17:48:16.112082+00:00
631,Crixás do Tocantins,br,-11.2037661,-49.0009403,1,0.0,,0,0,0,2020-06-13 00:19:54.454081+00:00
632,"Mason County, Kentucky",us,38.6194103,-83.8897057,789,10.0,,16,2,0,2020-12-17 17:45:41.346197+00:00
633,"Eureka County, Nevada",us,39.5126741,-115.9637979,28,0.0,,0,0,0,2020-12-18 17:45:39.083225+00:00
634,Cerejeiras,br,-13.1891167,-60.8205386,15,2.0,,0,0,0,2020-06-13 00:19:51.422934+00:00
635,M'Sila,dz,35.677109,4.5418141,1423,1423.0,29.0,0,0,0,2020-12-18 17:48:45.345458+00:00
636,Sarat Ubaida,sa,18.0993174,43.1165621,1,0.0,0.0,0,0,0,2020-05-10 16:49:37.568837+00:00
637,Cumbe,br,-10.3524105,-37.1849592,2,0.0,,0,0,0,2020-06-13 00:19:54.942283+00:00
638,Alvorada,br,-29.9999532,-51.0783852,8,0.0,,0,0,0,2020-06-13 00:19:41.391028+00:00
639,"Wayne County, Michigan",us,42.2790746,-83.33618799999999,79023,3497.0,,666,30,0,2020-12-17 17:45:41.346197+00:00
640,Foreign to Shanghai,cn,31.225991,121.450342,113,1.0,112.0,0,0,0,2020-12-18 17:54:48.508171+00:00
641,"Camuy County, Puerto Rico",us,18.451728,-66.85357490000001,611,0.0,0.0,14,0,0,2020-12-17 17:48:16.112082+00:00
642,Arar,sa,30.9599447,41.0595636,35,0.0,23.0,0,0,0,2020-05-10 16:49:36.161422+00:00
643,"Park County, Montana",us,45.4788485,-110.6082522,803,4.0,,3,0,0,2020-12-17 17:45:41.346197+00:00
644,"Murray County, Georgia",us,34.7928029,-84.7315563,2434,37.0,,50,1,0,2020-12-17 17:45:41.346197+00:00
645,Dom Aquino,br,-15.6135333,-54.6972774,11,1.0,,1,1,0,2020-06-13 00:19:56.501509+00:00
646,"Clark County, Illinois",us,39.3824189,-87.77633329999999,1045,22.0,,18,0,0,2020-12-17 17:45:41.346197+00:00
647,Howtat Bani Tamim,sa,23.525188,46.8446611,2,0.0,0.0,0,0,0,2020-05-10 16:49:37.166357+00:00
648,Batalha,br,-4.066285199999999,-42.1572702,100,3.0,,0,0,0,2020-06-13 00:19:44.822867+00:00
649,"Franklin County, Indiana",us,39.4233977,-85.0649071,1051,29.0,,21,0,0,2020-12-17 17:45:41.346197+00:00
650,"Arthur County, Nebraska",us,41.5680276,-101.6157773,16,0.0,,0,0,0,2020-12-18 17:45:39.083225+00:00
651,"Catoosa County, Georgia",us,34.8981727,-85.14793639999999,2833,35.0,,79,0,0,2020-12-17 17:45:41.346197+00:00
652,"Davidson County, North Carolina",us,35.7748479,-80.1875065,7045,66.0,,149,5,0,2020-12-17 17:45:41.346197+00:00
653,Bremen,de,53.07929619999999,8.8016936,11101,142.0,,0,0,0,2020-12-17 00:00:00+00:00
654,Mannheim,de,49.4874592,8.466039499999999,7091,94.0,,0,0,0,2020-12-17 00:00:00+00:00
655,"Vance County, North Carolina",us,36.3479057,-78.4297187,2288,63.0,,22,0,0,2020-12-17 17:45:41.346197+00:00
656,Barreira,br,-4.2895897,-38.6432555,154,12.0,,28,1,0,2020-06-13 00:19:44.529846+00:00
657,Sussuapara,br,-7.0372711,-41.3770693,1,0.0,,0,0,0,2020-06-13 00:20:31.623912+00:00
658,"Smith County, Tennessee",us,36.2388468,-85.971322,1799,23.0,0.0,34,3,0,2020-12-17 17:48:16.112082+00:00
659,"Putnam County, Georgia",us,33.3069978,-83.3789389,1166,30.0,,23,-1,0,2020-12-17 17:45:41.346197+00:00
660,Nordestina,br,-10.8247619,-39.4297427,12,0.0,,1,0,0,2020-06-13 00:20:15.635723+00:00
661,"Lake County, Illinois",us,42.3689363,-87.8271534,44533,735.0,,434,50,0,2020-12-17 17:45:41.346197+00:00
662,Jundiaí,br,-23.1857076,-46.8978057,1928,101.0,,84,4,0,2020-06-13 00:20:07.879124+00:00
663,Aimorés,br,-19.4959312,-41.0713439,58,0.0,,0,0,0,2020-06-13 00:19:40.501609+00:00
664,"Brazoria County, Texas",us,29.2131857,-95.4777811,18097,218.0,0.0,252,4,0,2020-12-17 17:48:16.112082+00:00
665,"Davis County, Utah",us,40.9628845,-112.0953297,21314,76.0,0.0,386,1,0,2020-12-17 17:48:16.112082+00:00
666,"Indian River County, Florida",us,27.6947732,-80.54384499999999,5725,150.0,,58,0,0,2020-12-17 17:45:41.346197+00:00
667,Bento de Abreu,br,-21.2728796,-50.8125237,1,0.0,,0,0,0,2020-06-13 00:19:45.358910+00:00
668,Lagoa de Pedras,br,-6.1508327,-35.4353979,5,1.0,,0,0,0,2020-06-13 00:20:08.780779+00:00
669,"Latimer County, Oklahoma",us,34.835035,-95.3102505,397,4.0,,8,0,0,2020-12-17 17:45:41.346197+00:00
670,"Lincoln County, Georgia",us,33.7875101,-82.4319405,380,11.0,,6,0,0,2020-12-17 17:45:41.346197+00:00
671,Aparecida de Goiânia,br,-16.820257,-49.2473044,853,17.0,,0,0,0,2020-06-13 00:19:42.190967+00:00
672,Coroados,br,-21.3535673,-50.2854034,14,1.0,,0,0,0,2020-06-13 00:19:53.541629+00:00
673,Goiandira,br,-18.1353274,-48.0874672,3,1.0,,0,0,0,2020-06-13 00:19:59.678680+00:00
674,Boumerdès,dz,36.7580109,3.4851867,1206,1206.0,10.0,0,0,0,2020-12-18 17:48:45.505491+00:00
675,Corrèze,fr,45.4320081,2.0195909,481,84.0,373.0,0,0,0,2020-12-18 17:53:11.986602+00:00
676,Igarassu,br,-7.8292242,-34.9016204,362,56.0,,8,0,0,2020-06-13 00:20:01.952321+00:00
677,Limoeiro,br,-7.877335,-35.4450996,264,20.0,,19,0,0,2020-06-13 00:20:09.859212+00:00
678,"Mineral County, Montana",us,47.1497031,-114.9626904,129,0.0,,9,0,0,2020-12-17 17:45:41.346197+00:00
679,"Magoffin County, Kentucky",us,37.730555,-83.03613759999999,670,1.0,,1,0,0,2020-12-17 17:45:41.346197+00:00
680,Monte Mor,br,-22.9488184,-47.313161,95,3.0,,2,0,0,2020-06-13 00:20:14.177905+00:00
681,Montes Claros de Goiás,br,-17.1445075,-47.4657363,6,0.0,,0,0,0,2020-06-13 00:20:14.331693+00:00
682,Natividade da Serra,br,-23.3793926,-45.4437621,1,1.0,,0,0,0,2020-06-13 00:20:15.236316+00:00
683,"Esmeralda County, Nevada",us,37.7866167,-117.3616476,27,0.0,,0,0,0,2020-12-18 17:45:39.083225+00:00
684,Leudal,nl,51.26196600000001,5.8909968,0,0.0,,0,0,0,2020-12-13 18:03:44.697940+00:00
685,Novo Horizonte,br,-21.4649748,-49.2246518,20,0.0,,1,0,0,2020-06-13 00:20:16.961296+00:00
686,Enkhuizen,nl,52.7075663,5.274119600000001,0,0.0,,0,0,0,2020-12-13 18:03:44.697940+00:00
687,Niquelândia,br,-14.4670392,-48.454488,11,0.0,,0,0,0,2020-06-13 00:20:15.581703+00:00
688,Lambayeque,pe,-6.7197666,-79.9080757,10791,,,259,0,0,2020-06-13 00:20:42.901916+00:00
689,Santa Filomena,br,-9.113902699999999,-45.9219465,2,0.0,,0,0,0,2020-06-13 00:20:27.656340+00:00
690,Vlaardingen,nl,51.9120668,4.3494366,0,0.0,,0,0,0,2020-12-13 18:03:44.697940+00:00
691,Wassenaar,nl,52.1429096,4.4012129,0,0.0,,0,0,0,2020-12-13 18:03:44.697940+00:00
692,"Ouachita County, Louisiana",us,32.4271852,-92.2236667,12274,241.0,,367,2,0,2020-12-17 17:45:41.346197+00:00
693,"Curry County, New Mexico",us,34.5751567,-103.2663479,3711,37.0,,31,0,0,2020-12-17 17:45:41.346197+00:00
694,"Coos County, New Hampshire",us,44.7288907,-71.27872669999999,439,13.0,,10,0,0,2020-12-17 17:45:41.346197+00:00
695,Acari,br,-22.8255312,-43.34446,8,0.0,,0,0,0,2020-06-13 00:19:40.215912+00:00
696,Tatarstan,ru,55.1802364,50.7263945,11878,167.0,10416.0,0,0,0,2020-12-18 17:54:55.077257+00:00
697,"DeKalb County, Illinois",us,41.8329981,-88.7108964,6204,64.0,,84,0,0,2020-12-17 17:45:41.346197+00:00
698,Macuco,br,-21.9844505,-42.2531991,4,0.0,,0,0,0,2020-06-13 00:20:10.703870+00:00
699,"Jackson County, North Carolina",us,35.3265409,-83.12200740000002,1897,12.0,,32,1,0,2020-12-17 17:45:41.346197+00:00
700,Campo Bom,br,-29.6751942,-51.0611099,42,1.0,,2,1,0,2020-06-13 00:19:48.958921+00:00
701,Barreiras,br,-12.1477483,-44.9953475,143,0.0,,11,0,0,2020-06-13 00:19:44.552065+00:00
702,"Adams County, Pennsylvania",us,39.8522417,-77.2864879,3280,61.0,,84,4,0,2020-12-17 17:45:41.346197+00:00
703,Ivaiporã,br,-24.2444396,-51.6741201,11,2.0,,0,0,0,2020-06-13 00:20:05.521575+00:00
704,Miguelópolis,br,-20.179973,-48.0309631,7,0.0,,0,0,0,2020-06-13 00:20:13.142036+00:00
705,Mocajuba,br,-2.5846014,-49.5060861,416,13.0,,0,0,0,2020-06-13 00:20:13.656705+00:00
706,"Jefferson County, Florida",us,30.4311978,-83.8897057,864,14.0,,8,1,0,2020-12-17 17:45:41.346197+00:00
707,Minas do Leão,br,-30.135612,-52.04498359999999,10,0.0,,0,0,0,2020-06-13 00:20:13.270994+00:00
708,"Greenlee County, Arizona",us,33.2405598,-109.2831531,342,3.0,,1,0,0,2020-12-17 17:45:41.346197+00:00
709,Inaciolândia,br,-18.4873554,-49.9892163,1,0.0,,0,0,0,2020-06-13 00:20:02.464407+00:00
710,"Villalba County, Puerto Rico",us,18.1217554,-66.4985787,414,0.0,0.0,6,0,0,2020-12-17 17:48:16.112082+00:00
711,Laguna,br,-28.4876062,-48.8397403,27,1.0,,0,0,0,2020-06-13 00:20:09.039485+00:00
712,"Adams County, Mississippi",us,31.5305353,-91.28910359999999,1644,52.0,,11,0,0,2020-12-17 17:45:41.346197+00:00
713,Mara Rosa,br,-14.0162775,-49.1789075,7,1.0,,0,0,0,2020-06-13 00:20:11.387046+00:00
714,Arame,br,-5.050752,-45.9800848,128,1.0,,0,0,0,2020-06-13 00:19:42.630564+00:00
715,"Jackson County, South Dakota",us,43.6648065,-101.5248055,254,8.0,,0,0,0,2020-12-18 17:45:39.083225+00:00
716,Maranhãozinho,br,-2.2425812,-45.856995,223,1.0,,10,0,0,2020-06-13 00:20:11.567000+00:00
717,"Milwaukee County, Wisconsin",us,43.03879490000001,-87.9065334,85504,859.0,0.0,843,25,0,2020-12-17 17:48:16.112082+00:00
718,"Chelan County, Washington",us,47.9445331,-120.6749068,4340,31.0,0.0,0,0,0,2020-12-17 17:48:16.112082+00:00
719,"Aibonito County, Puerto Rico",us,18.140702,-66.2596811,254,0.0,0.0,7,0,0,2020-12-17 17:48:16.112082+00:00
720,Alto Rio Doce,br,-21.023513,-43.4116364,20,0.0,,5,0,0,2020-06-13 00:19:41.228166+00:00
721,"Bergen County, New Jersey",us,40.9262762,-74.07701,42264,2235.0,,367,12,0,2020-12-17 17:45:41.346197+00:00
722,Várzea da Roça,br,-11.6081114,-40.1363141,2,1.0,,0,0,0,2020-06-13 00:20:39.987584+00:00
723,"Humboldt County, California",us,40.7450055,-123.8695086,1374,15.0,,17,1,0,2020-12-17 17:45:41.346197+00:00
724,Goiana,br,-7.5630149,-35.0131428,546,38.0,,29,0,0,2020-06-13 00:19:59.667398+00:00
725,Santa Maria do Tocantins,br,-8.8050072,-47.7891315,0,0.0,,0,0,0,2020-06-13 00:20:28.157341+00:00
726,Rio dos Bois,br,-9.344059399999999,-48.5362298,0,0.0,,0,0,0,2020-06-11 22:49:00.450334+00:00
727,Pescaria Brava,br,-28.3966251,-48.8864246,3,0.0,,0,0,0,2020-06-13 00:20:20.402585+00:00
728,Lagoa do Carro,br,-7.8441738,-35.3108491,51,6.0,,0,0,0,2020-06-13 00:20:08.860049+00:00
729,Itajá,br,-19.0644263,-51.5461754,24,1.0,,0,0,0,2020-06-13 00:20:04.056394+00:00
730,"Lenawee County, Michigan",us,41.8433859,-84.01674229999999,4790,60.0,,78,6,0,2020-12-17 17:45:41.346197+00:00
731,"Montour County, Pennsylvania",us,41.02623029999999,-76.6874701,787,19.0,,48,1,0,2020-12-17 17:45:41.346197+00:00
732,"Barnes County, North Dakota",us,46.926176,-98.12223379999999,1194,22.0,,12,3,0,2020-12-17 17:45:41.346197+00:00
733,"Monroe County, West Virginia",us,37.5601958,-80.5882803,505,11.0,0.0,14,-1,0,2020-12-17 17:48:16.112082+00:00
734,Anicuns,br,-16.4613315,-49.9588111,16,0.0,,0,0,0,2020-06-13 00:19:41.999313+00:00
735,"Hancock County, Iowa",us,43.0387322,-93.66232389999999,1068,22.0,,4,1,0,2020-12-17 17:45:41.346197+00:00
736,"Colfax County, Nebraska",us,41.6268435,-97.0068393,1391,17.0,,5,0,0,2020-12-17 17:45:41.346197+00:00
737,Geertruidenberg,nl,51.7023659,4.8499781,0,0.0,,0,0,0,2020-12-13 18:03:44.697940+00:00
738,Campos dos Goytacazes,br,-21.7587303,-41.3267187,1137,59.0,,0,0,0,2020-06-13 00:19:49.277370+00:00
739,"Washington County, Rhode Island",us,41.45681130000001,-71.6673352,3713,98.0,,0,0,0,2020-12-18 17:45:39.083225+00:00
740,Mantena,br,-18.7765523,-40.9877527,55,1.0,,0,1,0,2020-06-13 00:20:11.311028+00:00
741,Matias Cardoso,br,-14.9007278,-43.751794,3,0.0,,0,0,0,2020-06-13 00:20:12.549382+00:00
742,Xinxiang,cn,35.303704,113.926763,57,3.0,54.0,0,0,0,2020-12-18 17:54:48.508171+00:00
743,"Clark County, Kansas",us,37.3158895,-99.8124935,176,5.0,,0,0,0,2020-12-18 17:45:39.083225+00:00
744,Alexânia,br,-16.0821361,-48.5074307,12,0.0,,0,0,0,2020-06-13 00:19:40.738882+00:00
745,"Blaine County, Nebraska",us,41.8795565,-99.99122539999999,16,0.0,,0,0,0,2020-12-18 17:45:39.083225+00:00
746,Monte Alegre do Piauí,br,-9.754056199999999,-45.3041402,5,0.0,,0,0,0,2020-06-13 00:20:13.994072+00:00
747,"Grand Forks County, North Dakota",us,48.0037819,-97.35945249999999,9033,56.0,,29,5,0,2020-12-17 17:45:41.346197+00:00
748,Sandolândia,br,-12.5384116,-49.9246609,3,0.0,,0,0,0,2020-06-13 00:20:27.214833+00:00
749,Serra Preta,br,-12.1564809,-39.33084830000001,10,0.0,,1,0,0,2020-06-13 00:20:30.332916+00:00
750,Abel Figueiredo,br,-4.9537103,-48.3937096,44,1.0,,0,0,0,2020-06-13 00:19:40.131517+00:00
751,Aliança do Tocantins,br,-11.3059083,-48.938313,3,0.0,,0,0,0,2020-06-13 00:19:40.810162+00:00
752,Alpinópolis,br,-20.8609004,-46.3865617,1,0.0,,0,0,0,2020-06-13 00:19:40.910527+00:00
753,Aperibé,br,-21.6257256,-42.1020627,34,0.0,,0,0,0,2020-06-13 00:19:42.247135+00:00
754,Corumbataí,br,-22.2229445,-47.6232221,8,0.0,,0,0,0,2020-06-13 00:19:53.868276+00:00
755,"Bedford County, Pennsylvania",us,39.98695499999999,-78.5660852,2533,74.0,,24,2,0,2020-12-17 17:45:41.346197+00:00
756,Hancheng,cn,35.476788,110.442846,1,0.0,1.0,0,0,0,2020-12-18 17:54:48.508171+00:00
757,Maraial,br,-8.784689499999999,-35.8106998,26,2.0,,0,0,0,2020-06-13 00:20:11.524492+00:00
758,Rio da Conceição,br,-11.3952896,-46.8850838,0,0.0,,0,0,0,2020-06-13 00:20:26.275381+00:00
759,"Renville County, Minnesota",us,44.66744449999999,-94.976654,1210,35.0,,11,1,0,2020-12-17 17:45:41.346197+00:00
760,Papagaios,br,-19.4414254,-44.7423131,5,0.0,,-1,0,0,2020-06-13 00:20:18.388635+00:00
761,"St. Clair County, Illinois",us,38.40081199999999,-89.9253233,18764,319.0,,224,2,0,2020-12-17 17:45:41.346197+00:00
762,"Pittsburg County, Oklahoma",us,34.9879281,-95.81428849999999,2404,23.0,,11,0,0,2020-12-17 17:45:41.346197+00:00
763,"Lake County, Tennessee",us,36.3270676,-89.49311759999999,1331,11.0,0.0,10,0,0,2020-12-17 17:48:16.112082+00:00
764,Planura,br,-20.1382968,-48.7008434,9,2.0,,0,0,0,2020-06-13 00:20:21.750328+00:00
765,"Greeley County, Kansas",us,38.4738028,-101.7979613,89,0.0,,0,0,0,2020-12-18 17:45:39.083225+00:00
766,Paraguaçu Paulista,br,-22.4139537,-50.5761151,12,1.0,,0,0,0,2020-06-13 00:20:18.452077+00:00
767,"Madison County, Iowa",us,41.2922367,-93.9878427,854,8.0,,5,0,0,2020-12-17 17:45:41.346197+00:00
768,"White County, Georgia",us,34.6567728,-83.7199136,1717,33.0,,37,2,0,2020-12-17 17:45:41.346197+00:00
769,Rio Real,br,-11.4818089,-37.9335882,25,0.0,,0,0,0,2020-06-13 00:20:26.192541+00:00
770,Senador Rui Palmeira,br,-9.4701876,-37.4579456,18,0.0,,0,0,0,2020-06-13 00:20:30.037174+00:00
771,Ibitirama,br,-20.5407655,-41.6654144,28,3.0,,1,2,0,2020-06-13 00:20:01.699418+00:00
772,Ourolândia,br,-10.7741302,-41.2004878,1,0.0,,0,0,0,2020-06-13 00:20:17.799440+00:00
773,Doutor Camargo,br,-23.5586271,-52.21830139999999,3,0.0,,1,0,0,2020-06-13 00:19:56.787976+00:00
774,Halderberge,nl,51.586263,4.513955999999999,0,0.0,,0,0,0,2020-12-13 18:03:44.697940+00:00
775,"Warren County, Iowa",us,41.30805489999999,-93.5003454,3403,26.0,,30,1,0,2020-12-17 17:45:41.346197+00:00
776,"Mecosta County, Michigan",us,43.6201025,-85.35496499999999,1565,12.0,,8,0,0,2020-12-17 17:45:41.346197+00:00
777,"Woodford County, Kentucky",us,38.0721662,-84.7315563,1118,1.0,,20,0,0,2020-12-17 17:45:41.346197+00:00
778,Serra Branca,br,-7.4828261,-36.6639815,9,0.0,,0,0,0,2020-06-13 00:20:30.215462+00:00
779,"Lawrence County, South Dakota",us,44.31065299999999,-103.7979877,2378,27.0,0.0,10,0,0,2020-12-17 17:48:16.112082+00:00
780,Jaguapitã,br,-23.1093238,-51.5338731,6,0.0,,1,0,0,2020-06-13 00:20:05.919326+00:00
781,vestland,no,60.8138379,6.1410712,5369,,,32,0,0,2020-12-18 17:48:46.317418+00:00
782,São Luiz Gonzaga,br,-28.40818,-54.9615405,10,0.0,,0,0,0,2020-06-13 00:20:34.293405+00:00
783,São Luiz,br,-2.5299669,-44.2567292,57,1.0,,0,0,0,2020-06-13 00:20:34.318035+00:00
784,Antônio Olinto,br,-25.9808707,-50.19766809999999,1,0.0,,0,0,0,2020-06-13 00:19:42.133140+00:00
785,Trizidela do Vale,br,-4.536449999999999,-44.6630541,379,3.0,,0,0,0,2020-06-13 00:20:37.282091+00:00
786,"Livingston County, Missouri",us,39.8464073,-93.5003454,926,19.0,,0,0,0,2020-12-18 17:45:39.083225+00:00
787,Wadi Al Fara’a,sa,18.0665636,42.7027225,21,0.0,0.0,0,0,0,2020-05-10 16:49:37.073748+00:00
788,Gelsenkirchen,de,51.517744,7.085717199999999,6454,57.0,,0,0,0,2020-12-17 00:00:00+00:00
789,"Talladega County, Alabama",us,33.4231716,-86.1344697,4546,67.0,,70,3,0,2020-12-17 17:45:41.346197+00:00
790,Pacaembu,br,-23.5460244,-46.66936339999999,30,2.0,,0,0,0,2020-06-13 00:20:17.820435+00:00
791,Itagi,br,-14.1625612,-40.008339,9,0.0,,0,0,0,2020-06-13 00:20:03.762147+00:00
792,Meridiano,br,-20.3546746,-50.1724535,1,0.0,,0,0,0,2020-06-13 00:20:13.025852+00:00
793,"Brown County, Nebraska",us,42.5052914,-99.99122539999999,195,1.0,,5,0,0,2020-12-17 17:45:41.346197+00:00
794,"Barranquitas County, Puerto Rico",us,18.1866242,-66.3062802,535,0.0,0.0,3,0,0,2020-12-17 17:48:16.112082+00:00
795,"Green Lake County, Wisconsin",us,43.863117,-89.0179332,1623,13.0,0.0,12,3,0,2020-12-17 17:48:16.112082+00:00
796,Tizi Ouzou,dz,36.7021906,4.0593255,1497,1497.0,16.0,0,0,0,2020-12-18 17:48:45.106491+00:00
797,Navegantes,br,-26.8947924,-48.6550692,298,9.0,,2,0,0,2020-06-13 00:20:15.281957+00:00
798,"Forsyth County, North Carolina",us,36.1200003,-80.1875065,17429,196.0,,205,7,0,2020-12-17 17:45:41.346197+00:00
799,"Washington County, Vermont",us,44.1986663,-72.6972529,840,5.0,0.0,5,0,0,2020-12-17 17:48:16.112082+00:00
800,"Gwinnett County, Georgia",us,33.9190653,-84.01674229999999,48980,570.0,,684,2,0,2020-12-17 17:45:41.346197+00:00
801,"Roosevelt County, Montana",us,48.2850231,-105.1099231,1352,42.0,,17,0,0,2020-12-17 17:45:41.346197+00:00
802,Princess Ridge.,cn,28.385233,-81.563874,6,0.0,6.0,0,0,0,2020-12-18 17:54:48.508171+00:00
803,Adelândia,br,-16.4162064,-50.1676594,3,0.0,,0,0,0,2020-06-13 00:19:40.295711+00:00
804,Erval Grande,br,-27.3929522,-52.5671125,12,0.0,,0,0,0,2020-06-13 00:19:57.384095+00:00
805,Paim Filho,br,-27.7094899,-51.7590308,3,0.0,,0,0,0,2020-06-13 00:20:17.960282+00:00
806,Fernão,br,-22.3605675,-49.5221497,0,0.0,,0,0,0,2020-06-13 00:19:58.149634+00:00
807,Miracema,br,-21.4115391,-42.1923991,51,0.0,,0,0,0,2020-06-13 00:20:13.369144+00:00
808,Monte Carmelo,br,-18.7247843,-47.50474010000001,8,0.0,,0,0,0,2020-06-13 00:20:14.140029+00:00
809,Meizhou,cn,24.288578,116.122523,17,0.0,17.0,0,0,0,2020-12-18 17:54:48.508171+00:00
810,Demerval Lobão,br,-5.3591418,-42.6779629,140,1.0,,0,0,0,2020-06-13 00:19:55.752806+00:00
811,Nonoai,br,-27.3663872,-52.7749937,55,1.0,,0,0,0,2020-06-13 00:20:15.622272+00:00
812,Paes Landim,br,-7.778080399999999,-42.2551694,1,0.0,,0,0,0,2020-06-13 00:20:17.939045+00:00
813,Palminópolis,br,-16.7926554,-50.16545379999999,1,1.0,,0,0,0,2020-06-13 00:20:18.279746+00:00
814,Salitre,br,-7.286061500000001,-40.4561543,23,1.0,,4,0,0,2020-06-13 00:20:27.005302+00:00
815,Turilândia,br,-2.2167472,-45.3048107,193,1.0,,0,0,0,2020-06-13 00:20:37.846768+00:00
816,"Presidio County, Texas",us,29.9480666,-104.1001326,560,13.0,0.0,1,0,0,2020-12-17 17:48:16.112082+00:00
817,"Iron County, Utah",us,37.7854715,-113.1918021,2684,13.0,,0,0,0,2020-12-18 17:45:39.083225+00:00
818,"Gosper County, Nebraska",us,40.4604851,-99.8124935,140,1.0,,0,0,0,2020-12-17 17:45:41.346197+00:00
819,"Woodson County, Kansas",us,37.9197853,-95.81428849999999,94,0.0,,0,0,0,2020-12-18 17:45:39.083225+00:00
820,"Delaware County, Iowa",us,42.4634009,-91.44346900000001,1565,27.0,,4,0,0,2020-12-17 17:45:41.346197+00:00
821,"Vigo County, Indiana",us,39.4165382,-87.42075179999999,8185,132.0,,101,0,0,2020-12-17 17:45:41.346197+00:00
822,"Osage County, Missouri",us,38.3853377,-91.9099238,1086,6.0,,0,0,0,2020-12-18 17:45:39.083225+00:00
823,"Hendry County, Florida",us,26.6105319,-81.0754657,2929,46.0,,32,0,0,2020-12-17 17:45:41.346197+00:00
824,Jateí,br,-22.4810974,-54.3084369,1,0.0,,0,0,0,2020-06-13 00:20:06.754870+00:00
825,"Manati County, Puerto Rico",us,18.433005,-66.4758583,668,0.0,0.0,8,0,0,2020-12-17 17:48:16.112082+00:00
826,"Berrien County, Georgia",us,31.3118535,-83.2077645,911,30.0,,13,0,0,2020-12-17 17:45:41.346197+00:00
827,"Franklin County, Pennsylvania",us,39.8923855,-77.6536125,7152,176.0,,89,7,0,2020-12-17 17:45:41.346197+00:00
828,"Louisa County, Virginia",us,37.9925909,-77.973865,709,9.0,0.0,18,0,0,2020-12-17 17:48:16.112082+00:00
829,Harderwijk,nl,52.3422025,5.6367423,0,0.0,,0,0,0,2020-12-13 18:03:44.697940+00:00
830,"Mason County, Illinois",us,40.2271003,-89.9253233,891,34.0,,8,4,0,2020-12-17 17:45:41.346197+00:00
831,Guaraciaba do Norte,br,-4.1632847,-40.7504006,95,4.0,,0,0,0,2020-06-13 00:20:00.490426+00:00
832,Terneuzen,nl,51.3322854,3.8324265,0,0.0,,0,0,0,2020-12-13 18:03:44.697940+00:00
833,Khenchela,dz,35.4309947,7.1467072,623,623.0,5.0,0,0,0,2020-12-18 17:48:45.546996+00:00
834,"Cass County, Iowa",us,41.2538068,-94.976654,959,38.0,,7,1,0,2020-12-17 17:45:41.346197+00:00
835,"San Joaquin County, California",us,37.9175935,-121.1710389,35010,556.0,,1161,7,0,2020-12-17 17:45:41.346197+00:00
836,"Perry County, Ohio",us,39.7641353,-82.25832969999999,1526,15.0,,64,0,0,2020-12-17 17:45:41.346197+00:00
837,"Logan County, Nebraska",us,41.5155698,-100.5296115,58,0.0,,0,0,0,2020-12-17 17:45:41.346197+00:00
838,Nova Resende,br,-21.1123858,-46.400872,1,0.0,,0,0,0,2020-06-13 00:20:16.616276+00:00
839,Rio Tinto,br,38.8981064,-77.024354,161,4.0,,28,1,0,2020-06-13 00:20:26.223115+00:00
840,Peritoró,br,-4.3736761,-44.3414449,286,1.0,,2,0,0,2020-06-13 00:20:20.369620+00:00
841,"Grant County, Oregon",us,44.4384077,-118.8917326,161,1.0,,0,0,0,2020-12-18 17:45:39.083225+00:00
842,São Ludgero,br,-28.3291007,-49.1789776,38,1.0,,2,0,0,2020-06-13 00:20:34.268885+00:00
843,Belo Horizonte,br,-19.9166813,-43.9344931,3094,66.0,,175,0,0,2020-06-13 00:19:45.094020+00:00
844,Itaipava do Grajaú,br,-5.1431995,-45.7892087,55,0.0,,0,0,0,2020-06-13 00:20:03.885757+00:00
845,"Crockett County, Texas",us,30.5977955,-101.1617356,483,8.0,0.0,5,0,0,2020-12-17 17:48:16.112082+00:00
846,Ocauçu,br,-22.4405968,-49.9208703,0,0.0,,0,0,0,2020-06-13 00:20:17.164115+00:00
847,"Hillsdale County, Michigan",us,41.8685961,-84.5222189,2303,50.0,,32,1,0,2020-12-17 17:45:41.346197+00:00
848,"Menominee County, Michigan",us,45.4995277,-87.5746277,1533,22.0,,12,-1,0,2020-12-17 17:45:41.346197+00:00
849,"Gladwin County, Michigan",us,44.0327885,-84.3542049,1076,22.0,,6,2,0,2020-12-17 17:45:41.346197+00:00
850,Luiziânia,br,-21.6742213,-50.3299084,1,0.0,,0,0,0,2020-06-13 00:20:10.276003+00:00
851,"Sierra County, New Mexico",us,33.13459600000001,-107.1011931,477,25.0,,4,5,0,2020-12-17 17:45:41.346197+00:00
852,"Haakon County, South Dakota",us,44.2671365,-101.5248055,212,5.0,0.0,8,0,0,2020-12-17 17:48:16.112082+00:00
853,Doutor Severiano,br,-6.095713399999999,-38.3759655,6,0.0,,0,0,0,2020-06-13 00:19:56.828932+00:00
854,Descalvado,br,-21.9159354,-47.6202833,14,1.0,,0,0,0,2020-06-13 00:19:56.114684+00:00
855,"Bay County, Michigan",us,43.7109732,-84.01674229999999,5676,157.0,,63,3,0,2020-12-17 17:45:41.346197+00:00
856,Itamaraju,br,-17.0389098,-39.529653,223,3.0,,9,0,0,2020-06-13 00:20:04.081385+00:00
857,Weert,nl,51.2519718,5.7138711,0,0.0,,0,0,0,2020-12-13 18:03:44.697940+00:00
858,"Henrico County, Virginia",us,37.5059332,-77.3324425,10345,271.0,0.0,85,0,0,2020-12-17 17:48:16.112082+00:00
859,Antas,br,-10.410047,-38.3321596,2,0.0,,0,0,0,2020-06-13 00:19:42.042421+00:00
860,Milagres do Maranhão,br,-3.5806119,-42.6105843,64,0.0,,18,0,0,2020-06-13 00:20:13.156726+00:00
861,"Fremont County, Colorado",us,38.5306514,-105.5005483,3903,12.0,,39,0,0,2020-12-17 17:45:41.346197+00:00
862,Nova Castilho,br,-20.7637937,-50.342374,1,1.0,,0,0,0,2020-06-13 00:20:15.974098+00:00
863,Piaçabuçu,br,-10.4073113,-36.4313297,103,4.0,,3,0,0,2020-06-13 00:20:20.491365+00:00
864,"San German County, Puerto Rico",us,18.0807082,-67.0411096,216,0.0,0.0,3,0,0,2020-12-17 17:48:16.112082+00:00
865,"Skagit County, Washington",us,48.4241961,-121.7114362,2741,31.0,0.0,0,0,0,2020-12-17 17:48:16.112082+00:00
866,"Fallon County, Montana",us,46.3762402,-104.4280327,263,1.0,,0,0,0,2020-12-18 17:45:39.083225+00:00
867,"Grant County, North Dakota",us,46.3951108,-101.5535564,167,7.0,,0,0,0,2020-12-18 17:45:39.083225+00:00
868,Barreiras do Piauí,br,-9.922778300000001,-45.4772439,1,0.0,,0,0,0,2020-06-13 00:19:44.540932+00:00
869,Brazabrantes,br,-16.4299644,-49.3864604,2,0.0,,0,0,0,2020-06-13 00:19:46.731161+00:00
870,Alto Alegre do Maranhão,br,-4.1599147,-44.9665687,225,7.0,,0,0,0,2020-06-13 00:19:41.028865+00:00
871,"Thurston County, Washington",us,46.8645747,-122.7695986,4031,50.0,0.0,0,0,0,2020-12-17 17:48:16.112082+00:00
872,"Pulaski County, Georgia",us,32.232644,-83.46435509999999,524,30.0,,7,0,0,2020-12-17 17:45:41.346197+00:00
873,"Duval County, Florida",us,30.3500511,-81.6035062,52674,692.0,,738,0,0,2020-12-17 17:45:41.346197+00:00
874,"Baltimore city, Maryland",us,39.2903848,-76.6121893,28874,641.0,,266,6,0,2020-12-17 17:45:41.346197+00:00
875,"Wayne County, Ohio",us,40.7588598,-81.9534815,5057,128.0,,94,1,0,2020-12-17 17:45:41.346197+00:00
876,"Sumter County, Georgia",us,31.9981596,-84.2278796,1516,73.0,,1,0,0,2020-12-17 17:45:41.346197+00:00
877,Zhuzhou,cn,27.827986,113.133853,80,0.0,80.0,0,0,0,2020-12-18 17:54:48.508171+00:00
878,Barra Velha,br,-26.6331439,-48.6846608,34,0.0,,1,0,0,2020-06-13 00:19:44.281399+00:00
879,"Franklin County, Mississippi",us,31.4883928,-90.86751339999999,491,6.0,,16,0,0,2020-12-17 17:45:41.346197+00:00
880,"Crawford County, Illinois",us,39.0499568,-87.77633329999999,1424,25.0,,20,9,0,2020-12-17 17:45:41.346197+00:00
881,Tula Oblast,ru,54.163768,37.5649507,19934,598.0,17457.0,0,0,0,2020-12-18 17:54:55.077257+00:00
882,Aquidauana,br,-20.46526,-55.78509589999999,0,0.0,,0,0,0,2020-06-13 00:19:42.387797+00:00
883,West  Iceland,is,64.770434,-21.5341294,44,,,0,0,0,2020-12-18 17:48:46.955602+00:00
884,Vassouras,br,-22.4087928,-43.67021889999999,177,11.0,,0,0,0,2020-06-13 00:20:39.121593+00:00
885,"Tehama County, California",us,40.0982197,-122.174605,2557,31.0,,0,0,0,2020-12-18 17:45:39.083225+00:00
886,Alcântara,br,-2.4039377,-44.41525439999999,23,4.0,,0,1,0,2020-06-13 00:19:40.644413+00:00
887,Santa Rita do Tocantins,br,-10.8621444,-48.9165477,0,0.0,,0,0,0,2020-06-11 22:49:03.221439+00:00
888,Rhône,fr,45.6402905,5.6864994,11206,1731.0,8408.0,0,0,0,2020-12-18 17:53:12.014827+00:00
889,Barra do Piraí,br,-22.4570139,-43.8393942,254,21.0,,0,0,0,2020-06-13 00:19:44.434884+00:00
890,An Nabhaniyyah,sa,25.8579098,43.0680491,39,0.0,6.0,0,0,0,2020-07-01 06:48:20.264641+00:00
891,"Gurabo County, Puerto Rico",us,18.2543987,-65.9729421,891,0.0,0.0,14,0,0,2020-12-17 17:48:16.112082+00:00
892,Manhumirim,br,-20.3596647,-41.95889,1,0.0,,0,0,0,2020-06-13 00:20:11.216752+00:00
893,Overseas Imports,cn,37.09024,-95.712891,237,0.0,232.0,0,0,0,2020-12-18 17:54:48.508171+00:00
894,"Worcester County, Massachusetts",us,42.4096528,-71.8571331,36535,1377.0,,0,0,0,2020-12-18 17:45:39.083225+00:00
895,Terschelling,nl,53.3978747,5.3466786,0,0.0,,0,0,0,2020-12-13 18:03:44.697940+00:00
896,"Rio Arriba County, New Mexico",us,36.6162892,-106.7234639,1941,35.0,,75,2,0,2020-12-17 17:45:41.346197+00:00
897,Zweibrücken,de,49.2450528,7.3634022,317,2.0,,0,0,0,2020-12-17 00:00:00+00:00
898,"Putnam County, Ohio",us,41.0540759,-84.1857115,2978,62.0,,41,1,0,2020-12-17 17:45:41.346197+00:00
899,"Washington County, Pennsylvania",us,40.1367719,-80.1875065,7153,106.0,,135,3,0,2020-12-17 17:45:41.346197+00:00
900,Skikda,dz,36.8715199,6.910180599999999,698,698.0,8.0,0,0,0,2020-12-18 17:48:45.217035+00:00
901,"Elbert County, Colorado",us,39.35370040000001,-104.1930918,849,6.0,,8,1,0,2020-12-17 17:45:41.346197+00:00
902,Fartura,br,-23.3879944,-49.5076524,10,1.0,,3,0,0,2020-06-13 00:19:57.917725+00:00
903,Araputanga,br,-15.4706866,-58.34559549999999,9,0.0,,0,0,0,2020-06-13 00:19:42.737488+00:00
904,Huairou District,cn,40.316304,116.631979,7,0.0,0.0,0,0,0,2020-12-18 17:54:48.508171+00:00
905,Ubá,br,-21.120123,-42.9426188,80,1.0,,0,0,0,2020-06-13 00:20:38.164808+00:00
906,Joan,cn,37.09024,-95.712891,1,0.0,1.0,0,0,0,2020-12-18 17:54:48.508171+00:00
907,Iracema,br,-5.812796,-38.2922861,22,1.0,,0,0,0,2020-06-13 00:20:03.216525+00:00
908,Planaltina,br,-15.6216249,-47.65215140000001,139,7.0,,0,0,0,2020-06-13 00:20:21.659964+00:00
909,Itacarambi,br,-15.0894816,-44.09540860000001,4,0.0,,0,0,0,2020-06-13 00:20:03.689638+00:00
910,"Lafayette County, Arkansas",us,33.2511695,-93.62178019999999,301,4.0,,6,0,0,2020-12-17 17:45:41.346197+00:00
911,Jataizinho,br,-23.2582928,-50.9782288,10,1.0,,0,0,0,2020-06-13 00:20:06.706819+00:00
912,"Wakulla County, Florida",us,30.1301689,-84.3542049,1852,20.0,,18,0,0,2020-12-17 17:45:41.346197+00:00
913,"Prowers County, Colorado",us,37.84337560000001,-102.2547919,904,19.0,,11,0,0,2020-12-17 17:45:41.346197+00:00
914,Santa Terezinha do Tocantins,br,-6.4447739,-47.6688132,0,0.0,,0,0,0,2020-06-13 00:20:28.550355+00:00
915,Milagres,br,-7.3155983,-38.9384361,29,2.0,,0,0,0,2020-06-13 00:20:13.183185+00:00
916,"Sarasota County, Florida",us,27.1995986,-82.34518899999999,16389,454.0,,200,4,0,2020-12-17 17:45:41.346197+00:00
917,Antonina,br,-25.4328356,-48.7162067,10,0.0,,1,0,0,2020-06-13 00:19:42.063981+00:00
918,Natal,br,-5.7792569,-35.200916,4367,168.0,,0,0,0,2020-06-13 00:20:15.222717+00:00
919,Main-Taunus-Kreis,de,50.1171096,8.4207448,3962,64.0,,0,0,0,2020-12-17 00:00:00+00:00
920,Vaupés,co,0.8553561,-70.81199529999999,11,0.0,11.0,0,0,0,2020-06-13 00:20:43.704995+00:00
921,Tin shui,cn,22.4569263,114.0039643,12,0.0,12.0,0,0,0,2020-12-18 17:54:48.508171+00:00
922,Baixa Grande do Ribeiro,br,-8.489240299999999,-45.1494505,18,1.0,,0,0,0,2020-06-13 00:19:43.924576+00:00
923,Rio Branco do Sul,br,-25.1897803,-49.3135479,10,0.0,,1,0,0,2020-06-13 00:20:25.908896+00:00
924,"Utuado County, Puerto Rico",us,18.2655095,-66.70045189999999,415,0.0,0.0,17,0,0,2020-12-17 17:48:16.112082+00:00
925,"Logan County, Illinois",us,40.061338,-89.3226954,2470,39.0,,19,10,0,2020-12-17 17:45:41.346197+00:00
926,Arauá,br,-11.2629642,-37.6213915,8,3.0,,2,0,0,2020-06-13 00:19:42.987140+00:00
927,"Attala County, Mississippi",us,33.1683267,-89.62516459999999,1490,43.0,,21,0,0,2020-12-17 17:45:41.346197+00:00
928,"Kingman County, Kansas",us,37.6071593,-98.2212979,491,5.0,,0,0,0,2020-12-18 17:45:39.083225+00:00
929,South Iceland,is,64.2661426,-18.8158139,179,,,0,0,0,2020-12-18 17:48:46.906879+00:00
930,Prignitz,de,53.0392549,12.0455484,608,6.0,,0,0,0,2020-12-17 00:00:00+00:00
931,oslo,no,59.9138688,10.7522454,12499,,,228,0,0,2020-12-18 17:48:46.317418+00:00
932,Anhalt-Bitterfeld,de,51.7537917,11.9895626,1141,9.0,,0,0,0,2020-12-17 00:00:00+00:00
933,"Allen County, Indiana",us,41.0932622,-85.02334599999999,25102,440.0,,289,8,0,2020-12-17 17:45:41.346197+00:00
934,"Appling County, Georgia",us,31.712238,-82.25832969999999,1484,42.0,,21,0,0,2020-12-17 17:45:41.346197+00:00
935,Martinópolis,br,-22.1495075,-51.1721032,9,1.0,,0,0,0,2020-06-13 00:20:12.316937+00:00
936,"Hamilton County, Florida",us,30.47559579999999,-82.95015579999999,1099,12.0,,15,0,0,2020-12-17 17:45:41.346197+00:00
937,"Allegany County, New York",us,42.3129816,-78.0195387,1468,65.0,,17,0,0,2020-12-17 17:45:41.346197+00:00
938,'s-Hertogenbosch,nl,51.6978162,5.3036748,0,0.0,,0,0,0,2020-12-13 18:03:44.697940+00:00
939,Braga,br,41.5545908,-8.410342199999999,2,0.0,,0,0,0,2020-06-13 00:19:46.569788+00:00
940,"Rooks County, Kansas",us,39.3638509,-99.2785583,446,9.0,,0,0,0,2020-12-18 17:45:39.083225+00:00
941,"Camas County, Idaho",us,43.5093688,-114.8243665,56,0.0,,0,0,0,2020-12-18 17:45:39.083225+00:00
942,Cajamar,br,-23.3550047,-46.87886719999999,441,29.0,,25,1,0,2020-06-13 00:19:48.305054+00:00
943,"El Paso County, Colorado",us,38.9108325,-104.4723301,37096,465.0,,490,6,0,2020-12-17 17:45:41.346197+00:00
944,São Caetano de Odivelas,br,-0.744838,-48.0221415,253,15.0,,0,0,0,2020-06-13 00:20:31.924419+00:00
945,Corinto,br,-18.3646982,-44.4521214,35,0.0,,0,0,0,2020-06-13 00:19:53.486808+00:00
946,Corbélia,br,-24.795383,-53.2960968,16,0.0,,1,0,0,2020-06-13 00:19:53.349719+00:00
947,Recursolândia,br,-8.7231092,-47.2425262,0,0.0,,0,0,0,2020-06-13 00:20:25.198814+00:00
948,"Chickasaw County, Iowa",us,43.0724667,-92.38136209999999,979,10.0,,1,0,0,2020-12-17 17:45:41.346197+00:00
949,"Taylor County, Iowa",us,40.7846069,-94.645035,508,8.0,,0,0,0,2020-12-17 17:45:41.346197+00:00
950,"Upton County, Texas",us,31.33848429999999,-101.9804613,225,6.0,0.0,3,0,0,2020-12-17 17:48:16.112082+00:00
951,Gouveia,br,-18.4564212,-43.7418035,1,0.0,,0,0,0,2020-06-13 00:19:59.867506+00:00
952,"Rappahannock County, Virginia",us,38.6762327,-78.1564432,132,2.0,0.0,9,0,0,2020-12-17 17:48:16.112082+00:00
953,Ribeirópolis,br,-10.5405031,-37.4382054,27,2.0,,0,0,0,2020-06-13 00:20:25.817920+00:00
954,Axixá,br,-2.8230648,-44.0770134,42,1.0,,1,0,0,2020-06-13 00:19:43.779871+00:00
955,São João de Iracema,br,-20.5128425,-50.3537328,3,0.0,,1,0,0,2020-06-13 00:20:33.710808+00:00
956,Altamira,br,-3.1986176,-52.2103299,705,27.0,,0,0,0,2020-06-13 00:19:40.977583+00:00
957,Marcos Parente,br,-7.116050599999999,-43.8929931,5,0.0,,0,0,0,2020-06-13 00:20:11.838643+00:00
958,Caarapó,br,-22.6343857,-54.8233506,5,0.0,,-1,0,0,2020-06-13 00:19:47.635721+00:00
959,Venâncio Aires,br,-29.6290849,-52.1846999,209,7.0,,0,0,0,2020-06-13 00:20:39.174473+00:00
960,Lagoa da Prata,br,-19.993828,-45.4874873,159,1.0,,5,0,0,2020-06-13 00:20:08.727313+00:00
961,Bugre,br,-19.3433398,-42.3347949,1,0.0,,0,0,0,2020-06-13 00:19:47.143474+00:00
962,Ibirá,br,-21.0815917,-49.2391364,4,0.0,,0,0,0,2020-06-13 00:20:01.662710+00:00
963,Baden-Baden,de,48.76564,8.228524199999999,871,28.0,,0,0,0,2020-12-17 00:00:00+00:00
964,"Coleman County, Texas",us,31.7320219,-99.456155,311,13.0,0.0,3,0,0,2020-12-17 17:48:16.112082+00:00
965,"New London County, Connecticut",us,41.5185189,-72.0468164,8716,207.0,,154,5,0,2020-12-17 17:45:41.346197+00:00
966,"Tift County, Georgia",us,31.4205597,-83.54965659999999,3072,79.0,,31,0,0,2020-12-17 17:45:41.346197+00:00
967,Noardeast-FryslÃ¢n,nl,53.3500097,5.960837499999999,0,0.0,,0,0,0,2020-12-01 12:48:48.862085+00:00
968,Paranaíta,br,-9.6726607,-56.4727738,3,0.0,,0,0,0,2020-06-13 00:20:18.667883+00:00
969,"Bayfield County, Wisconsin",us,46.6650481,-91.12220070000001,882,16.0,0.0,12,0,0,2020-12-17 17:48:16.112082+00:00
970,Barra do Ouro,br,-7.712335500000001,-47.6744418,5,2.0,,0,0,0,2020-06-13 00:19:44.424547+00:00
971,Bofete,br,-23.1012119,-48.2616994,29,2.0,,0,0,0,2020-06-13 00:19:45.859034+00:00
972,"Pike County, Missouri",us,39.3964742,-91.28910359999999,1148,11.0,,0,0,0,2020-12-18 17:45:39.083225+00:00
973,Gramado Xavier,br,-29.271064,-52.5800101,1,0.0,,0,0,0,2020-06-13 00:20:00.056043+00:00
974,Mossâmedes,br,-16.1252741,-50.2141433,2,0.0,,0,0,0,2020-06-13 00:20:14.698566+00:00
975,Bazhong,cn,31.867903,106.747477,24,0.0,24.0,0,0,0,2020-12-18 17:54:48.508171+00:00
976,"Allegheny County, Pennsylvania",us,40.4450813,-80.0087746,43857,767.0,,850,26,0,2020-12-17 17:45:41.346197+00:00
977,"Dallas County, Iowa",us,41.6120022,-93.9878427,7341,60.0,,56,0,0,2020-12-17 17:45:41.346197+00:00
978,Olinda Nova do Maranhão,br,-2.9933201,-44.9901454,59,4.0,,0,0,0,2020-06-13 00:20:17.392667+00:00
979,"Mahnomen County, Minnesota",us,47.3811737,-95.797516,365,6.0,,0,0,0,2020-12-18 17:45:39.083225+00:00
980,Rolante,br,-29.6518847,-50.57670780000001,10,0.0,,0,0,0,2020-06-13 00:20:26.481225+00:00
981,Hengyang,cn,26.893368,112.572018,48,0.0,48.0,0,0,0,2020-12-18 17:54:48.508171+00:00
982,"Archer County, Texas",us,33.5761511,-98.7481167,438,4.0,0.0,8,0,0,2020-12-17 17:48:16.112082+00:00
983,Newcastle upon Tyne,gb,54.978252,-1.61778,1013,,,0,0,0,2020-05-14 15:01:09+00:00
984,Al Quwarah,sa,26.7709451,43.47411,16,0.0,4.0,0,0,0,2020-07-01 06:48:20.291984+00:00
985,Landsmeer,nl,52.4403382,4.9209232,0,0.0,,0,0,0,2020-12-13 18:03:44.697940+00:00
986,Pirpirituba,br,-6.7811243,-35.496794,33,0.0,,0,0,0,2020-06-13 00:20:21.486909+00:00
987,Pariconha,br,-9.2554242,-38.00267840000001,6,0.0,,0,0,0,2020-06-13 00:20:18.933549+00:00
988,Paripiranga,br,-10.6840029,-37.8629798,4,0.0,,1,0,0,2020-06-13 00:20:18.955342+00:00
989,"Androscoggin County, Maine",us,44.19124160000001,-70.17070369999999,2075,39.0,,18,0,0,2020-12-17 17:45:41.346197+00:00
990,"Hendricks County, Indiana",us,39.8064942,-86.5400674,9575,205.0,,174,0,0,2020-12-17 17:45:41.346197+00:00
991,Al Hariq,sa,23.6245445,46.5114487,17,0.0,14.0,0,0,0,2020-07-01 06:48:19.879810+00:00
992,"Waller County, Texas",us,29.9751629,-96.02557379999999,1643,21.0,0.0,28,0,0,2020-12-17 17:48:16.112082+00:00
993,"Ward County, North Dakota",us,48.21474509999999,-101.5805256,8204,163.0,,20,15,0,2020-12-17 17:45:41.346197+00:00
994,Guests.,cn,36.102576,-115.1702533,11,0.0,11.0,0,0,0,2020-12-18 17:54:48.508171+00:00
995,Santa Maria do Cambucá,br,-7.833388599999999,-35.8809269,7,1.0,,0,0,0,2020-06-13 00:20:28.134825+00:00
996,Alto Caparaó,br,-20.4667289,-41.8700097,2,0.0,,0,0,0,2020-06-13 00:19:41.121915+00:00
997,Caldeirão Grande,br,-11.0212955,-40.3042406,7,0.0,,1,0,0,2020-06-13 00:19:48.488475+00:00
998,Belágua,br,-3.1552268,-43.5125387,162,0.0,,0,0,0,2020-06-13 00:19:45.167538+00:00
999,Chapadão do Sul,br,-18.7943811,-52.61910260000001,49,0.0,,3,0,0,2020-06-13 00:19:51.630121+00:00
1000,"Doniphan County, Kansas",us,39.8245628,-95.18492189999999,607,5.0,,0,0,0,2020-12-18 17:45:39.083225+00:00
1001,Extrema,br,-22.8564961,-46.3259721,222,4.0,,16,0,0,2020-06-13 00:19:57.808651+00:00
1002,"Lea County, New Mexico",us,32.8968816,-103.3587288,6074,74.0,,77,4,0,2020-12-17 17:45:41.346197+00:00
1003,Hattem,nl,52.4739306,6.0681758,0,0.0,,0,0,0,2020-12-13 18:03:44.697940+00:00
1004,"Bath County, Kentucky",us,38.1068164,-83.7199136,401,2.0,,8,0,0,2020-12-17 17:45:41.346197+00:00
1005,Prado Ferreira,br,-23.0419867,-51.44377950000001,4,0.0,,0,0,0,2020-06-13 00:20:23.535523+00:00
1006,Farroupilha,br,-29.2231867,-51.3423619,330,4.0,,-1,0,0,2020-06-13 00:19:57.896722+00:00
1007,Sucupira,br,-11.993461,-48.9689468,0,0.0,,0,0,0,2020-06-13 00:20:31.542740+00:00
1008,P.A. Trento,it,46.06893511,11.12123097,19804,835.0,16109.0,251,14,428,2020-12-18 17:53:09.351651+00:00
1009,"Boone County, Arkansas",us,36.3118662,-93.0175712,2273,54.0,,49,1,0,2020-12-17 17:45:41.346197+00:00
1010,Newham,gb,51.5255162,0.0352163,985,,,0,0,0,2020-05-14 15:01:09+00:00
1011,"Lyman County, South Dakota",us,43.9016694,-99.8124935,505,9.0,,0,0,0,2020-12-18 17:45:39.083225+00:00
1012,"Porter County, Indiana",us,41.5248577,-87.10237459999999,11219,129.0,,143,2,0,2020-12-17 17:45:41.346197+00:00
1013,Al Aqiq,sa,20.2795444,41.6510644,1,0.0,0.0,0,0,0,2020-05-10 16:49:37.042881+00:00
1014,"Beaverhead County, Montana",us,45.2135118,-113.1093046,720,7.0,,13,0,0,2020-12-17 17:45:41.346197+00:00
1015,Lhasa,cn,29.65483799999999,91.140552,1,0.0,1.0,0,0,0,2020-12-18 17:54:48.508171+00:00
1016,"Codington County, South Dakota",us,44.9953593,-97.23487460000001,3228,64.0,0.0,24,0,0,2020-12-17 17:48:16.112082+00:00
1017,General Salgado,br,-20.6445174,-50.3637524,26,0.0,,2,0,0,2020-06-13 00:19:59.514839+00:00
1018,"Missaukee County, Michigan",us,44.366621,-85.02334599999999,400,8.0,,3,1,0,2020-12-17 17:45:41.346197+00:00
1019,"Columbia County, Wisconsin",us,43.40466319999999,-89.3226954,4216,25.0,0.0,44,2,0,2020-12-17 17:48:16.112082+00:00
1020,"San Juan County, Puerto Rico",us,18.4655394,-66.1057355,9854,0.0,0.0,119,0,0,2020-12-17 17:48:16.112082+00:00
1021,Palhano,br,-4.7019543,-38.0419836,28,1.0,,0,-1,0,2020-06-13 00:20:18.022080+00:00
1022,São Salvador do Tocantins,br,-12.7461866,-48.23558939999999,1,0.0,,0,0,0,2020-06-13 00:20:35.064051+00:00
